time SIM.Roll SIM.Pitch SIM.Yaw BAR.Alt FLIGHT.Roll FLIGHT.Pitch FLIGHT.Yaw FLIGHT.dN FLIGHT.dE FLIGHT.Alt AHR2.Roll AHR2.Pitch AHR2.Yaw DCM.Roll DCM.Pitch DCM.Yaw EKF.Roll EKF.Pitch EKF.Yaw INAV.dN INAV.dE INAV.Alt EKF.dN EKF.dE EKF.Alt
27.573 1.2 25.4 332.4 32.45 -1.6 25.7 -27.2 0.00 0.00 23.32 -1.0 25.3 -25.8 -3.8 29.6 -21.4 -3.11 29.29 -24.64 70.06 -36.95 32.53
27.593 1.2 25.4 332.5 32.45 -1.6 25.5 -27.3 0.00 0.00 23.32 -0.7 25.2 -25.9 -3.5 29.4 -21.0 -3.01 29.25 -24.33 70.27 -37.07 32.69
27.613 1.2 25.4 332.5 32.45 -1.7 25.3 -27.4 0.00 0.00 23.32 -1.0 25.0 -26.1 -3.8 29.4 -21.3 -2.95 29.17 -24.31 70.47 -37.20 32.85
27.633 1.2 25.3 332.5 32.45 -1.6 25.2 -27.3 0.00 0.00 23.32 -0.8 24.7 -26.0 -4.0 29.0 -21.6 -3.14 29.02 -24.67 70.68 -37.33 33.01
27.653 1.2 25.3 332.6 31.43 -1.9 25.2 -27.4 0.00 0.00 23.32 -0.9 24.8 -25.9 -3.9 29.0 -21.3 -3.19 28.84 -24.67 70.89 -37.46 33.17
27.673 1.3 25.2 332.6 31.43 -2.0 25.0 -27.4 0.00 0.00 23.32 -1.4 24.6 -26.1 -4.1 29.0 -21.3 -3.19 28.83 -24.49 71.10 -37.59 33.31
27.693 1.3 25.2 332.6 31.43 -2.0 24.8 -27.3 0.00 0.00 23.32 -1.2 24.4 -26.0 -4.2 28.8 -21.5 -3.32 28.75 -24.57 71.31 -37.72 33.45
27.714 1.4 25.2 332.7 31.43 -2.2 24.8 -27.3 0.00 0.00 23.32 -1.4 24.1 -25.8 -4.4 28.7 -21.3 -3.46 28.64 -24.58 71.52 -37.85 33.59
27.734 1.4 25.2 332.7 31.43 -2.3 24.8 -27.1 0.00 0.00 26.35 -1.2 23.9 -25.7 -5.0 29.2 -21.7 -3.77 28.82 -24.67 71.73 -37.98 33.73
27.754 1.4 25.2 332.7 29.65 -2.4 24.5 -27.0 0.00 0.00 26.35 -1.3 23.5 -25.1 -5.1 29.2 -21.4 -4.06 29.08 -24.71 71.94 -38.11 33.87
27.774 1.5 25.1 332.7 29.65 -2.6 24.3 -27.4 0.00 0.00 26.35 -1.4 23.3 -25.5 -5.2 29.0 -21.2 -4.17 29.00 -24.45 72.15 -38.24 33.98
27.794 1.5 25.1 332.8 29.65 -2.5 24.3 -27.5 0.00 0.00 26.35 -1.8 23.0 -25.9 -5.4 28.5 -21.6 -4.31 28.63 -24.53 72.36 -38.37 34.09
27.814 1.6 25.1 332.8 29.65 -2.4 24.3 -27.5 0.00 0.00 26.35 -1.4 23.2 -25.8 -5.4 28.4 -22.0 -4.37 28.32 -24.91 72.57 -38.50 34.21
27.834 1.6 25.1 332.8 29.65 -2.2 24.3 -27.4 0.00 0.00 26.35 -1.6 23.2 -26.0 -5.1 28.9 -21.6 -4.18 28.51 -24.89 72.78 -38.63 34.32
27.854 1.7 25.1 332.8 30.92 -1.7 24.3 -26.9 0.00 0.00 26.35 -1.0 23.1 -25.6 -4.9 28.7 -21.6 -3.91 28.67 -24.65 72.98 -38.76 34.43
27.874 1.8 25.1 332.9 30.92 -1.6 24.4 -26.6 0.00 0.00 26.35 -0.7 23.2 -25.0 -4.3 28.5 -21.2 -3.47 28.51 -24.43 73.19 -38.89 34.55
27.894 1.9 25.1 332.9 30.92 -1.7 24.2 -26.6 0.00 0.00 26.35 -0.8 23.3 -24.9 -4.3 28.8 -20.9 -3.14 28.53 -24.06 73.40 -39.02 34.68
27.915 2.0 25.1 332.9 30.92 -1.9 23.9 -26.8 0.00 0.00 26.35 -1.0 22.8 -25.0 -4.6 28.5 -21.0 -3.27 28.53 -23.90 73.61 -39.15 34.80
27.935 2.1 25.1 332.9 30.92 -2.2 24.2 -27.1 0.00 0.00 27.60 -1.4 22.7 -25.5 -4.6 28.4 -21.1 -3.35 28.37 -23.98 73.82 -39.28 34.92
27.955 2.3 25.1 332.9 31.29 -2.2 24.2 -27.3 0.00 0.00 27.60 -1.5 23.3 -25.7 -4.7 28.5 -21.3 -3.35 28.33 -24.12 74.03 -39.41 35.04
27.975 2.4 25.1 332.9 31.29 -2.1 23.8 -27.5 0.00 0.00 27.60 -1.5 22.7 -25.8 -5.1 28.4 -21.7 -3.58 28.33 -24.36 74.24 -39.55 35.16
27.995 2.5 25.1 332.9 31.29 -1.6 23.7 -27.6 0.00 0.00 27.60 -1.3 22.5 -26.2 -5.1 28.2 -21.9 -3.72 28.19 -24.63 74.45 -39.68 35.28
28.015 2.7 25.1 333.0 31.29 -0.9 23.8 -27.4 0.00 0.00 27.60 -0.6 22.4 -26.0 -4.6 27.7 -22.1 -3.41 27.83 -24.86 74.66 -39.81 35.40
28.035 2.8 25.1 333.0 31.29 -0.6 23.9 -27.1 0.00 0.00 27.60 0.1 22.8 -25.7 -3.8 27.9 -21.7 -2.71 27.71 -24.75 74.87 -39.94 35.51
28.055 3.0 25.1 333.0 33.02 -0.7 23.9 -27.0 0.00 0.00 27.60 -0.1 22.6 -25.5 -3.6 28.2 -21.6 -2.17 27.96 -24.43 75.08 -40.07 35.63
28.075 3.1 25.1 333.0 33.02 -0.8 24.1 -26.9 0.00 0.00 27.60 -0.1 22.9 -25.4 -3.8 28.3 -21.5 -2.16 28.14 -24.30 75.29 -40.21 35.77
28.095 3.2 25.1 333.0 33.02 -1.0 24.2 -26.9 0.00 0.00 27.60 -0.5 23.0 -25.4 -3.6 28.1 -21.1 -2.15 28.09 -24.03 75.50 -40.34 35.90
28.115 3.3 25.1 333.0 33.02 -0.9 24.1 -26.9 0.00 0.00 27.60 -0.4 23.0 -25.3 -4.1 28.2 -21.6 -2.24 28.08 -24.05 75.71 -40.47 36.03
28.136 3.5 25.2 333.1 33.02 -0.8 24.2 -26.7 0.00 0.00 28.83 -0.4 22.9 -25.4 -4.2 28.2 -21.6 -2.49 28.10 -24.27 75.92 -40.60 36.16
28.155 3.6 25.2 333.1 30.85 -0.7 24.4 -26.6 0.00 0.00 28.83 -0.1 23.3 -25.0 -3.9 28.2 -21.6 -2.34 28.06 -24.25 76.13 -40.73 36.30
28.176 3.8 25.2 333.1 30.85 -0.7 24.5 -26.6 0.00 0.00 28.83 -0.3 23.3 -25.1 -3.6 28.2 -21.6 -1.99 28.06 -24.24 76.35 -40.87 36.39
28.196 3.9 25.2 333.1 30.85 -0.5 24.7 -26.5 0.00 0.00 28.83 -0.2 23.4 -25.1 -3.6 28.3 -21.7 -1.80 28.10 -24.28 76.56 -41.00 36.49
28.216 4.0 25.3 333.1 30.85 -0.4 25.1 -26.6 0.00 0.00 28.83 0.1 23.8 -24.9 -3.8 28.2 -21.9 -1.91 28.11 -24.38 76.77 -41.13 36.59
28.236 4.1 25.3 333.2 30.85 -0.1 25.2 -26.6 0.00 0.00 28.83 0.0 24.2 -25.1 -3.4 28.8 -21.9 -1.79 28.37 -24.45 76.98 -41.26 36.69
28.256 4.2 25.3 333.2 32.96 0.3 25.1 -26.5 0.00 0.00 28.83 0.7 24.0 -25.0 -3.1 28.7 -21.7 -1.46 28.61 -24.34 77.20 -41.39 36.79
28.276 4.3 25.4 333.2 32.96 0.8 25.0 -26.2 0.00 0.00 28.83 0.9 24.0 -24.9 -2.6 28.5 -21.6 -1.07 28.48 -24.19 77.41 -41.53 36.90
28.296 4.4 25.4 333.3 32.96 1.2 25.1 -25.9 0.00 0.00 28.83 1.5 23.8 -24.4 -2.3 28.6 -21.4 -0.67 28.40 -24.02 77.62 -41.66 37.02
28.316 4.5 25.4 333.3 32.96 1.3 25.3 -25.7 0.00 0.00 28.83 1.6 24.2 -24.4 -2.0 28.7 -21.3 -0.38 28.46 -23.85 77.83 -41.79 37.14
28.336 4.6 25.5 333.4 32.96 1.3 25.2 -25.4 0.00 0.00 30.04 1.7 24.1 -23.9 -1.6 28.8 -20.7 -0.00 28.56 -23.50 78.04 -41.92 37.26
28.356 4.7 25.5 333.4 38.05 1.5 25.4 -25.1 0.00 0.00 30.04 1.7 24.1 -23.8 -1.4 29.1 -20.3 0.28 28.74 -22.97 78.25 -42.06 37.37
28.376 4.8 25.5 333.4 38.05 2.0 25.4 -24.6 0.00 0.00 30.04 2.1 24.3 -23.3 -1.2 28.9 -20.3 0.48 28.77 -22.77 78.47 -42.19 37.55
28.396 4.8 25.5 333.5 38.05 2.2 25.6 -24.3 0.00 0.00 30.04 2.6 24.2 -22.9 -1.1 29.0 -19.7 0.70 28.70 -22.49 78.68 -42.32 37.72
28.417 4.9 25.6 333.5 38.05 2.2 25.7 -24.3 0.00 0.00 30.04 2.5 24.6 -22.7 -0.4 29.3 -19.2 1.14 28.85 -21.99 78.89 -42.45 37.90
28.436 5.0 25.6 333.6 38.05 2.3 25.9 -24.4 0.00 0.00 30.04 2.7 24.6 -22.8 -0.4 29.5 -19.2 1.50 29.10 -21.78 79.11 -42.58 38.07
28.457 5.0 25.6 333.6 36.99 2.3 26.1 -24.5 0.00 0.00 30.04 2.7 24.9 -22.8 -0.3 29.6 -19.5 1.61 29.22 -21.95 79.32 -42.71 38.24
28.477 5.1 25.6 333.7 36.99 2.4 26.1 -24.7 0.00 0.00 30.04 2.8 25.0 -23.1 -0.5 29.7 -19.6 1.63 29.30 -22.12 79.53 -42.84 38.39
28.499 5.1 25.6 333.8 36.99 2.5 26.0 -24.6 0.00 0.00 30.04 2.8 24.8 -23.1 -0.4 29.9 -19.5 1.62 29.45 -22.10 79.74 -42.97 38.54
28.519 5.1 25.6 333.8 36.99 2.7 26.0 -24.3 0.00 0.00 30.04 2.9 24.9 -22.9 0.1 29.5 -19.3 1.93 29.31 -22.00 79.94 -43.10 38.69
28.539 5.1 25.6 333.9 36.99 2.7 26.0 -24.2 0.00 0.00 31.37 3.3 24.9 -22.4 0.1 30.1 -19.4 2.20 29.37 -21.95 80.15 -43.23 38.84
28.564 5.1 25.6 333.9 38.75 2.4 26.1 -24.4 0.00 0.00 31.37 2.9 24.8 -22.6 0.1 29.6 -19.0 2.23 29.40 -21.79 80.37 -43.35 38.99
28.584 5.1 25.6 334.0 38.75 2.1 26.3 -24.3 0.00 0.00 31.37 2.7 25.0 -22.8 -0.4 29.5 -19.3 2.03 29.13 -21.77 80.58 -43.48 39.15
28.604 5.0 25.6 334.0 38.75 1.5 26.5 -24.2 0.00 0.00 31.37 2.3 25.2 -22.4 -0.6 29.9 -19.2 1.71 29.30 -21.86 80.79 -43.61 39.32
28.625 5.0 25.6 334.1 38.75 1.0 26.6 -24.3 0.00 0.00 31.37 1.5 25.4 -22.7 -1.1 29.8 -19.0 1.36 29.44 -21.76 81.00 -43.73 39.48
28.644 4.9 25.5 334.2 38.75 0.9 26.7 -24.1 0.00 0.00 31.37 1.1 25.5 -22.4 -1.8 29.8 -19.1 0.79 29.37 -21.77 81.21 -43.86 39.64
28.664 4.8 25.5 334.3 36.96 0.8 26.7 -24.0 0.00 0.00 31.37 1.4 25.5 -22.2 -1.5 30.0 -19.2 0.65 29.49 -21.86 81.42 -43.98 39.80
28.685 4.6 25.5 334.4 36.96 0.5 26.5 -23.9 0.00 0.00 31.37 1.0 25.4 -22.3 -1.8 29.8 -19.1 0.65 29.51 -21.85 81.63 -44.11 39.94
28.704 4.4 25.5 334.4 36.96 0.4 26.5 -23.8 0.00 0.00 31.37 0.6 25.2 -22.0 -1.6 29.7 -19.0 0.61 29.33 -21.77 81.85 -44.23 40.07
28.725 4.3 25.4 334.5 36.96 0.5 26.3 -23.9 0.00 0.00 31.37 0.7 25.2 -22.0 -1.2 29.6 -18.5 0.93 29.20 -21.49 82.06 -44.36 40.20
28.745 4.1 25.4 334.6 36.96 0.5 26.2 -23.6 0.00 0.00 32.78 0.8 24.9 -22.1 -1.7 29.7 -19.1 0.91 29.21 -21.55 82.27 -44.48 40.33
28.765 3.8 25.3 334.7 37.65 0.5 26.2 -23.2 0.00 0.00 32.78 0.9 25.1 -21.5 -1.7 29.5 -18.8 0.64 29.19 -21.69 82.48 -44.61 40.46
28.785 3.6 25.3 334.8 37.65 0.1 26.1 -22.9 0.00 0.00 32.78 0.6 24.9 -21.3 -1.9 29.4 -19.0 0.54 29.05 -21.64 82.70 -44.73 40.60
28.805 3.4 25.3 334.9 37.65 -0.1 26.0 -22.5 0.00 0.00 32.78 0.1 24.7 -21.0 -2.5 29.4 -18.7 0.15 29.02 -21.59 82.92 -44.85 40.73
28.825 3.2 25.2 335.0 37.65 -0.3 26.1 -22.3 0.00 0.00 32.78 0.0 24.8 -20.6 -2.2 29.0 -18.1 -0.05 28.82 -21.16 83.13 -44.98 40.86
28.845 3.0 25.2 335.1 37.65 -0.6 26.0 -22.1 0.00 0.00 32.78 -0.5 24.8 -20.5 -3.0 29.4 -18.2 -0.29 28.78 -20.91 83.35 -45.10 41.00
28.865 2.9 25.1 335.1 39.08 -0.8 26.0 -22.1 0.00 0.00 32.78 -0.6 24.6 -20.3 -3.3 29.1 -17.9 -0.84 28.78 -20.86 83.56 -45.22 41.13
28.885 2.7 25.1 335.2 39.08 -1.0 26.1 -22.1 0.00 0.00 32.78 -0.8 24.7 -20.3 -3.1 29.1 -17.7 -0.92 28.61 -20.63 83.78 -45.35 41.28
28.905 2.5 25.0 335.3 39.08 -1.4 26.2 -22.2 0.00 0.00 32.78 -1.1 24.6 -20.4 -3.5 29.3 -17.7 -1.04 28.74 -20.54 84.00 -45.47 41.42
28.926 2.3 25.0 335.4 39.08 -1.4 26.5 -22.1 0.00 0.00 32.78 -1.5 24.9 -20.5 -3.8 29.2 -17.9 -1.37 28.78 -20.67 84.21 -45.59 41.57
28.945 2.2 24.9 335.4 39.08 -1.3 26.5 -21.7 0.00 0.00 34.10 -1.3 25.2 -20.2 -4.0 29.5 -17.7 -1.58 28.88 -20.71 84.43 -45.72 41.71
28.966 2.0 24.9 335.5 38.04 -1.5 26.4 -21.4 0.00 0.00 34.10 -1.3 24.9 -19.7 -4.2 29.5 -17.5 -1.79 29.04 -20.54 84.65 -45.84 41.86
28.986 1.8 24.9 335.6 38.04 -1.9 26.4 -21.4 0.00 0.00 34.10 -1.7 25.0 -19.7 -3.7 29.2 -16.9 -1.64 28.85 -20.14 84.87 -45.96 41.98
29.006 1.7 24.8 335.6 38.04 -2.1 26.3 -21.3 0.00 0.00 34.10 -2.2 25.0 -19.6 -3.7 29.0 -16.5 -1.41 28.53 -19.66 85.09 -46.08 42.10
29.026 1.5 24.8 335.7 38.04 -2.3 26.2 -21.5 0.00 0.00 34.10 -2.2 24.8 -19.5 -3.9 28.7 -16.3 -1.55 28.26 -19.34 85.30 -46.20 42.23
29.046 1.4 24.7 335.7 38.04 -2.5 26.4 -21.8 0.00 0.00 34.10 -2.6 24.9 -20.0 -4.3 28.8 -16.6 -1.82 28.19 -19.41 85.52 -46.32 42.35
29.066 1.2 24.7 335.8 37.92 -2.7 26.4 -21.8 0.00 0.00 34.10 -2.5 25.1 -20.1 -4.4 28.9 -16.9 -2.07 28.29 -19.71 85.74 -46.44 42.47
29.086 1.1 24.6 335.8 37.92 -3.4 26.1 -21.8 0.00 0.00 34.10 -3.1 24.8 -20.0 -4.6 28.7 -17.1 -2.24 28.21 -19.91 85.96 -46.56 42.58
29.106 1.0 24.6 335.9 37.92 -3.8 26.0 -21.7 0.00 0.00 34.10 -3.9 24.6 -20.2 -5.2 28.7 -16.9 -2.62 28.10 -19.88 86.18 -46.68 42.70
29.126 0.8 24.5 335.9 37.92 -4.0 26.2 -21.6 0.00 0.00 35.46 -4.0 24.6 -19.8 -5.5 28.1 -16.9 -3.10 27.79 -19.79 86.39 -46.80 42.81
29.146 0.7 24.5 335.9 37.92 -4.3 26.3 -21.8 0.00 0.00 35.46 -4.3 25.0 -19.9 -6.0 28.5 -16.8 -3.52 27.71 -19.76 86.61 -46.92 42.92
29.167 0.5 24.4 336.0 37.32 -4.6 26.1 -22.1 0.00 0.00 35.46 -4.4 24.9 -20.2 -6.3 28.6 -16.9 -3.88 27.95 -19.74 86.83 -47.03 43.04
29.187 0.4 24.4 336.0 37.32 -4.9 26.1 -22.1 0.00 0.00 35.46 -5.0 24.7 -20.4 -6.1 28.5 -17.4 -3.92 27.96 -20.02 87.05 -47.15 43.14
29.206 0.3 24.4 336.0 37.32 -5.0 26.4 -22.1 0.00 0.00 35.46 -5.0 24.9 -20.3 -6.3 28.8 -17.4 -3.92 28.07 -20.26 87.27 -47.26 43.24
29.227 0.1 24.3 336.0 37.32 -5.2 26.5 -22.4 0.00 0.00 35.46 -5.2 25.1 -20.4 -6.5 28.7 -17.3 -4.10 28.17 -20.22 87.49 -47.37 43.34
29.247 0.0 24.3 336.0 37.32 -5.4 26.7 -22.7 0.00 0.00 35.46 -5.3 25.3 -20.9 -6.6 28.9 -17.6 -4.24 28.22 -20.31 87.71 -47.49 43.44
29.267 -0.1 24.2 336.1 39.08 -5.5 26.7 -22.6 0.00 0.00 35.46 -5.5 25.4 -20.8 -6.4 28.7 -18.0 -4.22 28.23 -20.61 87.93 -47.60 43.54
29.287 -0.2 24.2 336.1 39.08 -5.7 26.7 -22.7 0.00 0.00 35.46 -5.5 25.3 -20.7 -7.1 28.9 -18.0 -4.46 28.21 -20.83 88.14 -47.72 43.65
29.307 -0.3 24.1 336.1 39.08 -5.8 26.6 -22.8 0.00 0.00 35.46 -5.9 25.5 -21.0 -7.0 28.9 -18.1 -4.73 28.31 -20.85 88.36 -47.83 43.76
29.327 -0.4 24.1 336.1 39.08 -5.7 26.4 -22.6 0.00 0.00 36.69 -5.8 25.1 -20.9 -7.0 28.8 -17.7 -4.69 28.29 -20.68 88.58 -47.94 43.87
29.347 -0.5 24.0 336.1 39.08 -5.5 26.4 -22.4 0.00 0.00 36.69 -5.6 25.1 -20.5 -6.8 28.4 -17.8 -4.61 28.02 -20.58 88.81 -48.06 43.99
29.367 -0.5 24.0 336.1 44.66 -5.1 26.2 -22.2 0.00 0.00 36.69 -5.4 25.1 -20.4 -6.7 28.5 -17.6 -4.47 27.81 -20.53 89.04 -48.17 44.10
29.387 -0.6 23.9 336.1 44.66 -4.8 25.9 -21.9 0.00 0.00 36.69 -4.9 24.7 -20.2 -6.2 28.4 -17.4 -4.16 27.78 -20.34 89.26 -48.29 44.27
29.407 -0.6 23.9 336.1 44.66 -4.8 25.7 -21.8 0.00 0.00 36.69 -4.9 24.4 -19.9 -5.8 28.1 -16.9 -3.70 27.61 -19.99 89.49 -48.40 44.45
29.427 -0.7 23.8 336.0 44.66 -4.6 25.6 -21.9 0.00 0.00 36.69 -4.8 24.3 -19.9 -5.7 27.6 -16.8 -3.40 27.20 -19.78 89.72 -48.51 44.62
29.448 -0.7 23.8 336.0 44.66 -4.5 25.4 -21.8 0.00 0.00 36.69 -4.7 24.2 -20.1 -6.0 27.3 -16.8 -3.46 26.77 -19.82 89.95 -48.62 44.79
29.468 -0.7 23.7 336.0 44.83 -4.8 25.2 -21.8 0.00 0.00 36.69 -4.7 23.7 -19.8 -5.9 26.9 -16.9 -3.56 26.39 -19.91 90.17 -48.74 44.96
29.488 -0.6 23.6 336.0 44.83 -5.2 25.2 -22.0 0.00 0.00 36.69 -5.3 23.9 -20.1 -6.1 26.6 -16.6 -3.64 26.03 -19.85 90.40 -48.85 45.13
29.508 -0.6 23.6 336.0 44.83 -5.4 25.2 -22.1 0.00 0.00 36.69 -5.5 23.6 -20.2 -6.6 26.6 -16.9 -3.99 25.90 -19.86 90.62 -48.96 45.29
29.528 -0.5 23.5 336.0 44.83 -5.6 25.4 -22.3 0.00 0.00 38.05 -5.9 23.9 -20.3 -6.9 26.6 -17.2 -4.37 25.90 -20.17 90.85 -49.07 45.45
29.548 -0.5 23.4 335.9 44.83 -5.5 25.4 -22.5 0.00 0.00 38.05 -5.9 23.9 -20.5 -6.8 26.6 -17.1 -4.42 25.90 -20.34 91.08 -49.19 45.62
29.568 -0.4 23.4 335.9 43.52 -5.4 25.1 -22.7 0.00 0.00 38.05 -5.6 23.9 -20.8 -6.8 26.9 -17.4 -4.30 26.03 -20.46 91.31 -49.30 45.78
29.588 -0.3 23.3 335.9 43.52 -5.5 24.9 -22.8 0.00 0.00 38.05 -5.7 23.3 -20.7 -6.9 26.5 -17.6 -4.37 25.95 -20.72 91.54 -49.41 45.91
29.608 -0.2 23.3 335.9 43.52 -5.6 24.8 -22.9 0.00 0.00 38.05 -5.9 23.4 -21.0 -7.0 26.2 -17.8 -4.50 25.61 -20.98 91.77 -49.52 46.05
29.628 -0.2 23.3 335.8 43.52 -5.5 24.6 -22.8 0.00 0.00 38.05 -5.9 23.3 -20.9 -6.8 26.2 -17.6 -4.40 25.48 -20.99 92.00 -49.63 46.19
29.649 -0.1 23.2 335.8 43.52 -5.6 24.7 -23.0 0.00 0.00 38.05 -5.8 23.0 -20.9 -7.0 25.9 -17.7 -4.35 25.34 -20.96 92.23 -49.75 46.32
29.668 -0.1 23.2 335.8 45.47 -5.9 24.9 -23.2 0.00 0.00 38.05 -6.1 23.4 -21.3 -6.9 25.8 -17.8 -4.38 25.14 -21.03 92.46 -49.86 46.46
29.689 -0.0 23.2 335.8 45.47 -5.8 24.8 -23.2 0.00 0.00 38.05 -6.3 23.4 -21.2 -7.3 25.5 -18.2 -4.51 24.95 -21.29 92.70 -49.97 46.61
29.709 0.1 23.2 335.8 45.47 -5.5 24.8 -22.9 0.00 0.00 38.05 -5.9 23.2 -21.2 -7.2 25.7 -17.9 -4.64 24.89 -21.37 92.93 -50.08 46.76
29.729 0.2 23.1 335.7 45.47 -5.1 25.0 -22.6 0.00 0.00 39.48 -5.8 23.4 -20.8 -6.9 25.8 -17.5 -4.47 24.99 -21.05 93.16 -50.19 46.91
29.749 0.3 23.1 335.7 45.47 -5.0 25.1 -22.4 0.00 0.00 39.48 -5.2 23.8 -20.4 -6.5 25.9 -17.2 -4.15 25.10 -20.76 93.40 -50.30 47.07
29.769 0.4 23.1 335.7 46.99 -5.5 24.9 -22.7 0.00 0.00 39.48 -5.7 23.6 -20.4 -6.5 26.0 -17.1 -3.92 25.22 -20.57 93.65 -50.41 47.22
29.789 0.5 23.1 335.7 46.99 -5.7 24.9 -23.1 0.00 0.00 39.48 -6.1 23.4 -21.0 -6.9 26.0 -17.3 -4.10 25.28 -20.64 93.89 -50.52 47.38
29.809 0.6 23.1 335.7 46.99 -5.4 25.0 -23.2 0.00 0.00 39.48 -6.0 23.6 -21.2 -7.1 25.7 -17.6 -4.37 25.13 -20.91 94.13 -50.63 47.54
29.829 0.7 23.1 335.6 46.99 -5.2 24.9 -23.3 0.00 0.00 39.48 -5.6 23.5 -21.2 -6.9 25.9 -17.8 -4.36 25.09 -21.16 94.37 -50.75 47.70
29.849 0.8 23.1 335.6 46.99 -5.1 24.8 -23.4 0.00 0.00 39.48 -5.6 23.3 -21.4 -6.3 25.8 -17.7 -3.95 25.16 -21.26 94.61 -50.86 47.87
29.870 1.0 23.1 335.6 47.25 -5.1 25.1 -23.6 0.00 0.00 39.48 -5.5 23.4 -21.2 -6.5 25.5 -17.5 -3.70 24.94 -21.16 94.85 -50.97 48.03
29.890 1.1 23.1 335.6 47.25 -4.9 25.3 -24.0 0.00 0.00 39.48 -5.5 23.8 -21.8 -6.1 25.5 -17.7 -3.58 24.76 -21.18 95.08 -51.08 48.18
29.910 1.3 23.1 335.6 47.25 -4.7 25.5 -24.1 0.00 0.00 39.48 -5.2 23.9 -21.9 -6.2 25.9 -18.3 -3.39 25.01 -21.57 95.32 -51.20 48.34
29.930 1.4 23.1 335.6 47.25 -4.8 25.5 -24.2 0.00 0.00 40.95 -5.2 24.0 -22.1 -6.1 25.9 -18.5 -3.36 25.23 -21.95 95.56 -51.31 48.50
29.950 1.6 23.1 335.6 47.25 -4.8 25.5 -24.1 0.00 0.00 40.95 -5.3 23.8 -22.0 -6.1 25.8 -18.2 -3.30 25.18 -21.94 95.81 -51.43 48.65
29.970 1.8 23.1 335.6 44.49 -4.8 25.8 -24.0 0.00 0.00 40.95 -5.2 24.1 -21.9 -5.8 25.7 -17.9 -3.13 25.10 -21.70 96.05 -51.54 48.81
29.990 1.9 23.1 335.6 44.49 -4.7 26.2 -24.0 0.00 0.00 40.95 -5.2 24.4 -21.8 -6.1 26.1 -18.0 -3.11 25.21 -21.59 96.30 -51.66 48.92
30.010 2.1 23.1 335.6 44.49 -4.5 26.4 -23.7 0.00 0.00 40.95 -5.1 24.9 -21.8 -6.4 26.5 -18.3 -3.36 25.59 -21.73 96.54 -51.77 49.04
30.030 2.3 23.1 335.6 44.49 -4.6 26.6 -23.7 0.00 0.00 40.95 -4.9 25.0 -21.3 -5.9 26.8 -17.8 -3.23 25.92 -21.61 96.79 -51.88 49.16
30.050 2.5 23.1 335.6 44.49 -4.6 26.7 -23.8 0.00 0.00 40.95 -5.2 25.3 -21.7 -5.7 27.0 -17.9 -2.90 26.15 -21.37 97.03 -52.00 49.27
30.070 2.6 23.1 335.6 44.44 -4.4 26.8 -23.7 0.00 0.00 40.95 -5.0 25.2 -21.5 -6.0 27.1 -18.2 -2.93 26.24 -21.53 97.28 -52.11 49.39
30.090 2.8 23.1 335.6 44.44 -4.4 27.0 -23.8 0.00 0.00 40.95 -4.9 25.4 -21.6 -5.8 27.1 -18.2 -2.91 26.25 -21.65 97.53 -52.23 49.50
30.110 3.0 23.1 335.6 44.44 -4.4 27.1 -23.9 0.00 0.00 40.95 -5.0 25.8 -21.7 -5.4 27.5 -17.8 -2.59 26.41 -21.40 97.77 -52.34 49.61
30.131 3.2 23.0 335.7 44.44 -4.0 26.8 -23.9 0.00 0.00 42.36 -4.7 25.5 -21.8 -5.3 27.2 -18.0 -2.35 26.45 -21.29 98.02 -52.46 49.72
30.151 3.4 23.0 335.7 44.44 -3.6 26.5 -23.9 0.00 0.00 42.36 -4.3 25.3 -21.6 -5.2 26.8 -18.2 -2.25 26.11 -21.51 98.27 -52.58 49.83
30.171 3.6 23.0 335.7 49.57 -3.3 26.4 -24.0 0.00 0.00 42.36 -4.0 24.9 -21.8 -5.2 26.7 -18.2 -2.20 25.82 -21.63 98.52 -52.69 49.94
30.191 3.8 23.0 335.7 49.57 -2.9 26.7 -24.0 0.00 0.00 42.36 -3.7 25.2 -21.9 -4.7 26.6 -17.9 -1.98 25.71 -21.52 98.77 -52.81 50.10
30.211 4.0 22.9 335.8 49.57 -2.4 26.7 -23.9 0.00 0.00 42.36 -3.1 25.3 -21.7 -4.2 27.0 -18.1 -1.50 25.83 -21.49 99.01 -52.93 50.27
30.231 4.2 22.9 335.8 49.57 -2.0 26.6 -23.9 0.00 0.00 42.36 -2.7 25.2 -21.5 -3.6 27.0 -17.9 -0.94 26.02 -21.52 99.26 -53.04 50.43
30.251 4.4 22.9 335.8 49.57 -1.6 26.5 -24.0 0.00 0.00 42.36 -2.2 25.1 -21.6 -3.3 26.6 -18.0 -0.48 25.81 -21.53 99.51 -53.16 50.60
30.271 4.6 22.8 335.9 44.88 -1.4 26.4 -24.2 0.00 0.00 42.36 -2.0 24.9 -21.8 -2.6 26.5 -17.8 0.00 25.53 -21.53 99.76 -53.28 50.77
30.291 4.8 22.7 335.9 44.88 -1.0 26.6 -24.4 0.00 0.00 42.36 -1.7 25.0 -21.9 -2.3 26.6 -18.0 0.44 25.48 -21.54 100.01 -53.40 50.87
30.311 5.0 22.7 335.9 44.88 -0.6 26.6 -24.5 0.00 0.00 42.36 -1.4 25.3 -22.1 -2.5 26.7 -18.6 0.48 25.57 -21.87 100.25 -53.51 50.97
30.332 5.3 22.6 336.0 44.88 -0.3 26.4 -24.8 0.00 0.00 43.76 -0.7 25.1 -22.2 -1.6 27.2 -18.3 0.81 25.86 -21.96 100.50 -53.63 51.07
30.352 5.5 22.5 336.0 44.88 -0.1 26.3 -25.1 0.00 0.00 43.76 -0.8 24.8 -22.6 -1.1 26.9 -18.4 1.76 25.82 -21.75 100.76 -53.75 51.17
30.372 5.7 22.5 336.1 49.00 0.3 26.2 -25.1 0.00 0.00 43.76 -0.3 24.8 -22.7 -0.5 26.6 -18.1 2.30 25.53 -21.67 101.01 -53.87 51.27
30.391 5.8 22.4 336.1 49.00 0.7 26.1 -24.9 0.00 0.00 43.76 0.0 24.6 -22.7 -0.4 26.9 -17.9 2.67 25.50 -21.44 101.26 -53.99 51.42
30.412 6.0 22.4 336.2 49.00 1.2 25.9 -24.9 0.00 0.00 43.76 0.4 24.6 -22.3 -0.1 26.9 -17.6 2.84 25.64 -21.20 101.52 -54.11 51.56
30.432 6.2 22.3 336.2 49.00 1.5 25.4 -25.0 0.00 0.00 43.76 0.9 24.2 -22.6 0.5 26.4 -17.5 3.27 25.42 -21.06 101.78 -54.23 51.71
30.452 6.3 22.2 336.3 49.00 2.0 25.1 -24.9 0.00 0.00 43.76 1.1 23.7 -22.5 0.8 26.0 -17.9 3.74 24.97 -21.26 102.03 -54.35 51.85
30.472 6.4 22.2 336.3 46.56 2.4 24.8 -24.9 0.00 0.00 43.76 1.8 23.5 -22.4 1.2 25.8 -17.6 4.10 24.67 -21.30 102.29 -54.47 52.00
30.492 6.5 22.1 336.4 46.56 2.7 24.7 -24.7 0.00 0.00 43.76 1.8 23.1 -22.5 1.7 25.4 -17.7 4.52 24.37 -21.16 102.55 -54.59 52.11
30.512 6.6 22.0 336.5 46.56 3.1 24.5 -24.3 0.00 0.00 43.76 2.4 23.2 -22.0 1.8 24.9 -17.5 4.82 23.93 -21.10 102.81 -54.71 52.21
30.532 6.6 21.9 336.5 46.56 3.3 24.0 -24.0 0.00 0.00 45.10 2.5 22.8 -21.8 1.9 24.5 -17.4 4.92 23.52 -20.99 103.07 -54.82 52.32
30.553 6.7 21.9 336.6 46.56 3.7 23.8 -23.6 0.00 0.00 45.10 2.9 22.8 -21.5 2.1 24.2 -17.0 5.09 23.12 -20.76 103.33 -54.94 52.43
30.573 6.7 21.8 336.7 49.58 4.0 23.5 -23.4 0.00 0.00 45.10 3.2 22.7 -21.2 2.3 23.9 -16.9 5.32 22.79 -20.45 103.60 -55.06 52.53
30.593 6.8 21.7 336.8 49.58 4.3 23.2 -23.2 0.00 0.00 45.10 3.4 22.2 -21.1 2.5 23.5 -16.7 5.52 22.48 -20.28 103.87 -55.18 52.67
30.613 6.8 21.7 336.8 49.58 4.7 23.0 -22.8 0.00 0.00 45.10 3.7 22.0 -20.8 2.6 23.3 -16.2 5.70 22.15 -19.95 104.14 -55.29 52.80
30.633 6.8 21.6 336.9 49.58 5.1 23.0 -22.5 0.00 0.00 45.10 4.2 21.9 -20.4 3.1 22.8 -15.9 6.01 21.79 -19.55 104.40 -55.41 52.94
30.653 6.8 21.5 337.0 49.58 5.4 22.8 -22.2 0.00 0.00 45.10 4.3 22.0 -20.3 3.6 23.2 -15.6 6.50 21.73 -19.23 104.67 -55.53 53.08
30.673 6.8 21.5 337.1 48.02 5.7 22.4 -21.7 0.00 0.00 45.10 4.8 21.5 -19.8 3.7 22.8 -15.3 6.84 21.70 -18.94 104.94 -55.65 53.21
30.693 6.8 21.5 337.2 48.02 5.7 22.1 -21.3 0.00 0.00 45.10 4.8 21.1 -19.4 4.1 22.2 -14.8 7.12 21.20 -18.45 105.21 -55.77 53.32
30.713 6.7 21.4 337.3 48.02 5.7 22.0 -20.9 0.00 0.00 45.10 4.7 21.0 -19.0 4.0 21.9 -14.4 7.33 20.77 -18.02 105.48 -55.88 53.43
30.733 6.7 21.4 337.4 48.02 5.5 22.1 -20.8 0.00 0.00 46.42 4.7 21.0 -18.7 3.8 21.9 -14.5 7.19 20.65 -17.87 105.75 -56.00 53.53
30.753 6.6 21.4 337.5 48.02 5.3 22.2 -20.8 0.00 0.00 46.42 4.4 21.1 -18.8 3.8 22.0 -14.5 7.10 20.70 -17.90 106.03 -56.12 53.64
30.773 6.5 21.4 337.6 50.64 5.3 22.2 -20.6 0.00 0.00 46.42 4.1 21.2 -18.6 3.5 22.0 -14.4 7.00 20.71 -17.81 106.31 -56.23 53.75
30.794 6.3 21.5 337.7 50.64 5.5 22.0 -20.4 0.00 0.00 46.42 4.3 21.2 -18.5 3.5 22.0 -14.0 6.90 20.67 -17.53 106.59 -56.35 53.88
30.815 6.2 21.5 337.8 50.64 5.6 21.8 -20.0 0.00 0.00 46.42 4.5 20.8 -18.3 3.4 22.4 -14.4 6.88 20.87 -17.50 106.87 -56.46 54.01
30.835 6.0 21.5 337.9 50.64 5.6 21.9 -19.8 0.00 0.00 46.42 4.4 20.9 -17.7 3.6 22.2 -13.8 6.95 20.97 -17.37 107.15 -56.58 54.15
30.855 5.8 21.5 338.0 50.64 5.6 22.1 -19.7 0.00 0.00 46.42 4.4 21.1 -17.7 3.2 22.7 -13.6 6.89 21.08 -16.99 107.43 -56.69 54.28
30.875 5.6 21.6 338.1 51.99 5.5 22.1 -19.6 0.00 0.00 46.42 4.5 21.4 -17.6 3.5 22.9 -13.1 6.85 21.37 -16.63 107.71 -56.81 54.41
30.895 5.3 21.6 338.2 51.99 5.2 22.2 -19.6 0.00 0.00 46.42 4.1 21.0 -17.6 3.3 22.8 -13.3 6.89 21.36 -16.48 107.99 -56.92 54.56
30.915 5.0 21.7 338.3 51.99 4.8 22.4 -19.5 0.00 0.00 46.42 3.8 21.6 -17.5 2.8 23.0 -13.5 6.58 21.38 -16.67 108.27 -57.03 54.70
30.935 4.7 21.8 338.4 51.99 4.2 22.5 -19.6 0.00 0.00 47.69 3.2 21.6 -17.5 2.5 23.5 -13.5 6.22 21.71 -16.73 108.55 -57.14 54.84
30.955 4.3 21.9 338.5 51.99 3.8 22.3 -19.7 0.00 0.00 47.69 2.7 21.7 -17.7 2.5 23.4 -13.2 6.09 21.92 -16.57 108.84 -57.25 54.98
30.976 4.0 22.0 338.6 51.07 3.3 22.1 -19.9 0.00 0.00 47.69 2.4 21.4 -17.7 2.5 23.2 -12.7 6.12 21.74 -16.18 109.13 -57.36 55.13
30.996 3.6 22.0 338.7 51.07 2.5 22.2 -20.1 0.00 0.00 47.69 1.6 21.3 -18.0 1.9 23.1 -13.1 5.82 21.55 -16.12 109.41 -57.48 55.25
31.016 3.2 22.1 338.8 51.07 1.9 22.4 -20.2 0.00 0.00 47.69 0.8 21.6 -18.2 1.1 23.1 -13.2 5.18 21.50 -16.36 109.70 -57.59 55.38
31.036 2.8 22.2 338.9 51.07 1.2 22.3 -20.2 0.00 0.00 47.69 0.4 21.6 -18.1 0.3 23.3 -13.6 4.44 21.60 -16.56 109.99 -57.69 55.50
31.056 2.3 22.3 338.9 51.07 0.5 22.4 -20.1 0.00 0.00 47.69 -0.5 21.6 -18.3 -0.1 23.5 -13.6 3.85 21.76 -16.71 110.27 -57.80 55.63
31.076 1.9 22.4 339.0 54.35 0.1 22.7 -19.9 0.00 0.00 47.69 -1.0 21.9 -17.9 -1.1 23.5 -13.6 3.17 21.83 -16.66 110.56 -57.91 55.76
31.096 1.4 22.5 339.1 54.35 -0.2 22.9 -19.9 0.00 0.00 47.69 -1.3 22.1 -17.9 -1.2 23.7 -13.0 2.66 21.88 -16.43 110.85 -58.02 55.91
31.116 0.9 22.5 339.2 54.35 -0.5 23.0 -19.8 0.00 0.00 47.69 -1.7 22.4 -17.9 -2.0 24.2 -13.5 2.25 22.18 -16.36 111.13 -58.12 56.07
31.136 0.4 22.6 339.2 54.35 -0.6 23.1 -19.3 0.00 0.00 49.02 -1.9 22.3 -17.6 -1.8 24.0 -13.1 1.98 22.36 -16.40 111.42 -58.23 56.23
31.157 -0.1 22.7 339.3 54.35 -1.0 23.3 -18.9 0.00 0.00 49.02 -2.3 22.8 -17.2 -2.2 24.3 -12.9 1.91 22.39 -16.07 111.71 -58.34 56.39
31.177 -0.6 22.8 339.4 54.06 -1.3 23.4 -18.7 0.00 0.00 49.02 -2.7 22.7 -16.7 -2.4 24.6 -12.7 1.67 22.67 -15.85 112.00 -58.44 56.55
31.197 -1.1 22.9 339.4 54.06 -1.5 23.7 -18.5 0.00 0.00 49.02 -3.0 23.0 -16.8 -2.5 25.0 -12.5 1.52 22.99 -15.66 112.29 -58.55 56.70
31.217 -1.6 23.0 339.4 54.06 -1.8 23.8 -18.4 0.00 0.00 49.02 -3.1 23.3 -16.4 -2.8 25.5 -12.4 1.36 23.39 -15.46 112.58 -58.65 56.85
31.237 -2.0 23.1 339.5 54.06 -2.4 24.0 -18.4 0.00 0.00 49.02 -3.7 23.4 -16.5 -2.9 25.3 -12.5 1.20 23.59 -15.42 112.87 -58.76 57.00
31.257 -2.4 23.2 339.5 54.06 -2.8 24.1 -18.2 0.00 0.00 49.02 -4.2 23.5 -16.4 -3.5 25.8 -12.5 0.84 23.74 -15.44 113.17 -58.86 57.15
31.277 -2.7 23.3 339.5 50.96 -3.3 24.3 -18.2 0.00 0.00 49.02 -4.5 23.6 -16.0 -4.1 26.0 -12.1 0.24 24.06 -15.23 113.46 -58.96 57.30
31.297 -3.1 23.3 339.5 50.96 -4.0 24.4 -18.4 0.00 0.00 49.02 -5.1 23.9 -16.5 -4.4 26.1 -12.2 -0.18 24.20 -15.04 113.75 -59.07 57.40
31.317 -3.4 23.4 339.5 50.96 -4.8 24.3 -18.4 0.00 0.00 49.02 -6.0 23.9 -16.5 -5.1 25.9 -12.3 -0.63 24.17 -15.05 114.05 -59.17 57.51
31.338 -3.7 23.5 339.5 50.96 -5.1 24.0 -18.4 0.00 0.00 50.46 -6.6 23.6 -16.4 -5.9 25.9 -12.3 -1.37 24.07 -15.08 114.34 -59.27 57.61
31.358 -4.0 23.5 339.5 50.96 -5.4 23.8 -18.7 0.00 0.00 50.46 -6.8 23.4 -16.6 -6.1 25.6 -12.0 -1.74 23.73 -14.93 114.64 -59.37 57.72
31.378 -4.3 23.6 339.4 56.28 -5.6 23.9 -18.8 0.00 0.00 50.46 -7.1 23.1 -16.9 -6.7 25.3 -12.5 -2.14 23.48 -15.00 114.94 -59.47 57.82
31.398 -4.6 23.6 339.4 56.28 -5.7 24.2 -18.8 0.00 0.00 50.46 -7.2 23.6 -16.8 -6.8 25.4 -12.7 -2.50 23.43 -15.37 115.24 -59.57 57.99
31.418 -4.8 23.7 339.4 56.28 -5.7 24.5 -18.9 0.00 0.00 50.46 -7.3 23.8 -16.8 -6.6 25.7 -12.5 -2.49 23.66 -15.35 115.54 -59.67 58.16
31.438 -5.1 23.7 339.3 56.28 -5.7 24.8 -18.8 0.00 0.00 50.46 -7.2 24.1 -17.0 -6.8 26.1 -12.6 -2.53 24.03 -15.27 115.84 -59.77 58.33
31.459 -5.3 23.8 339.3 56.28 -5.8 24.7 -18.9 0.00 0.00 50.46 -7.2 24.3 -16.7 -6.9 26.5 -12.6 -2.70 24.44 -15.32 116.14 -59.87 58.50
31.478 -5.5 23.8 339.2 58.21 -6.1 24.4 -19.1 0.00 0.00 50.46 -7.5 24.0 -17.1 -7.0 26.4 -12.6 -2.78 24.63 -15.35 116.44 -59.97 58.67
31.498 -5.7 23.8 339.2 58.21 -6.3 24.2 -19.2 0.00 0.00 50.46 -7.8 23.6 -17.1 -6.4 26.6 -12.3 -2.56 24.71 -15.24 116.75 -60.07 58.85
31.518 -5.9 23.8 339.1 58.21 -6.2 24.1 -19.1 0.00 0.00 50.46 -7.8 23.5 -17.2 -6.3 26.9 -12.3 -2.22 24.98 -15.07 117.05 -60.17 59.04
31.538 -6.0 23.8 339.0 58.21 -6.1 24.2 -18.9 0.00 0.00 51.85 -7.6 23.6 -16.9 -6.1 26.5 -12.1 -2.06 24.94 -15.01 117.35 -60.26 59.22
31.558 -6.2 23.8 339.0 58.21 -6.0 24.4 -18.9 0.00 0.00 51.85 -7.5 23.6 -16.9 -5.9 26.9 -12.0 -1.88 24.95 -14.92 117.65 -60.36 59.41
31.579 -6.2 23.9 338.9 56.63 -6.0 24.9 -18.9 0.00 0.00 51.85 -7.5 24.1 -16.8 -6.2 27.2 -12.1 -1.95 25.33 -14.93 117.96 -60.46 59.59
31.599 -6.3 23.9 338.8 56.63 -6.2 25.0 -19.1 0.00 0.00 51.85 -7.7 24.5 -17.0 -6.5 27.2 -12.2 -2.24 25.49 -15.04 118.27 -60.55 59.75
31.619 -6.4 23.9 338.7 56.63 -6.2 25.1 -19.2 0.00 0.00 51.85 -7.8 24.3 -17.1 -6.6 27.3 -12.5 -2.41 25.54 -15.21 118.57 -60.65 59.91
31.639 -6.5 23.9 338.6 56.63 -6.2 25.3 -19.1 0.00 0.00 51.85 -7.8 24.7 -17.3 -6.5 27.4 -12.1 -2.36 25.63 -15.14 118.88 -60.74 60.07
31.659 -6.5 23.9 338.6 56.63 -6.3 25.2 -19.0 0.00 0.00 51.85 -7.9 24.6 -16.9 -6.6 27.5 -12.2 -2.32 25.72 -15.01 119.19 -60.84 60.23
31.679 -6.5 23.9 338.5 53.97 -6.2 25.1 -19.2 0.00 0.00 51.85 -8.0 24.6 -17.1 -6.5 27.5 -12.0 -2.31 25.73 -14.93 119.50 -60.93 60.39
31.699 -6.6 23.9 338.4 53.97 -6.0 25.3 -19.4 0.00 0.00 51.85 -7.8 24.5 -17.3 -6.6 27.4 -12.3 -2.33 25.71 -14.91 119.80 -61.03 60.51
31.719 -6.6 23.9 338.3 53.97 -6.0 25.4 -19.6 0.00 0.00 51.85 -7.6 24.9 -17.5 -6.6 27.6 -12.7 -2.33 25.80 -15.19 120.11 -61.12 60.63
31.739 -6.6 23.9 338.2 53.97 -6.1 25.3 -19.8 0.00 0.00 53.40 -7.9 24.8 -17.7 -6.6 27.7 -13.1 -2.30 25.95 -15.54 120.42 -61.21 60.75
31.759 -6.6 23.9 338.1 53.97 -6.2 25.1 -20.0 0.00 0.00 53.40 -7.8 24.7 -17.9 -6.7 27.7 -12.9 -2.37 26.00 -15.61 120.73 -61.31 60.86
31.779 -6.6 23.9 338.0 59.27 -6.4 25.0 -20.3 0.00 0.00 53.40 -8.1 24.4 -18.1 -6.5 27.6 -13.3 -2.27 25.93 -15.65 121.05 -61.40 60.98
31.799 -6.6 23.8 338.0 59.27 -6.8 24.9 -20.7 0.00 0.00 53.40 -8.2 24.5 -18.5 -6.1 27.9 -13.5 -1.95 26.03 -15.93 121.36 -61.49 61.15
31.820 -6.6 23.8 337.9 59.27 -7.2 24.7 -21.0 0.00 0.00 53.40 -8.9 24.1 -18.9 -6.6 28.0 -13.8 -1.98 26.25 -16.19 121.67 -61.59 61.33
31.840 -6.6 23.8 337.8 59.27 -7.2 24.8 -21.0 0.00 0.00 53.40 -9.1 24.2 -19.1 -7.0 27.6 -14.2 -2.40 26.12 -16.55 121.98 -61.68 61.50
31.860 -6.5 23.8 337.7 59.27 -7.3 25.1 -21.2 0.00 0.00 53.40 -8.9 24.4 -18.9 -6.6 28.0 -13.8 -2.43 26.06 -16.55 122.30 -61.77 61.68
31.880 -6.5 23.8 337.6 56.79 -7.4 25.1 -21.6 0.00 0.00 53.40 -9.2 24.8 -19.5 -7.0 28.2 -14.2 -2.43 26.32 -16.54 122.61 -61.86 61.85
31.900 -6.4 23.7 337.5 56.79 -7.7 25.2 -21.9 0.00 0.00 53.40 -9.2 24.4 -19.8 -7.0 28.4 -14.7 -2.59 26.53 -16.94 122.93 -61.96 61.98
31.920 -6.4 23.7 337.5 56.79 -7.7 25.3 -22.2 0.00 0.00 53.40 -9.7 24.9 -20.2 -7.3 28.4 -14.8 -2.73 26.62 -17.23 123.24 -62.05 62.12
31.940 -6.3 23.7 337.4 56.79 -7.2 25.0 -22.1 0.00 0.00 54.84 -9.3 24.7 -20.3 -7.7 28.4 -15.4 -3.07 26.66 -17.60 123.56 -62.14 62.25
31.960 -6.3 23.7 337.3 56.79 -6.8 24.9 -22.0 0.00 0.00 54.84 -8.7 24.4 -20.0 -7.1 28.4 -15.0 -2.96 26.64 -17.69 123.87 -62.24 62.39
31.980 -6.2 23.6 337.3 57.30 -6.5 25.0 -22.1 0.00 0.00 54.84 -8.6 24.5 -20.1 -6.8 28.1 -15.0 -2.52 26.45 -17.49 124.19 -62.33 62.52
32.000 -6.1 23.6 337.2 57.30 -6.0 25.2 -22.2 0.00 0.00 54.84 -8.1 24.6 -20.2 -6.2 28.3 -15.0 -2.08 26.38 -17.44 124.50 -62.42 62.66
32.020 -6.0 23.6 337.1 57.30 -5.9 25.3 -22.3 0.00 0.00 54.84 -7.7 24.9 -20.3 -6.0 28.5 -15.2 -1.64 26.54 -17.47 124.81 -62.52 62.79
32.040 -5.9 23.6 337.1 57.30 -5.9 25.3 -22.2 0.00 0.00 54.84 -8.0 24.9 -20.6 -6.1 28.4 -15.2 -1.56 26.63 -17.54 125.13 -62.61 62.92
32.061 -5.7 23.5 337.0 57.30 -5.8 25.4 -22.4 0.00 0.00 54.84 -7.6 24.9 -20.2 -5.7 28.2 -14.9 -1.37 26.47 -17.37 125.44 -62.71 63.06
32.081 -5.5 23.5 336.9 61.33 -5.5 25.5 -22.5 0.00 0.00 54.84 -7.9 25.0 -20.8 -5.6 28.2 -15.3 -1.07 26.32 -17.39 125.76 -62.80 63.19
32.101 -5.3 23.5 336.9 61.33 -4.7 25.4 -22.2 0.00 0.00 54.84 -7.1 25.0 -20.5 -5.4 28.5 -15.6 -0.90 26.48 -17.72 126.07 -62.90 63.36
32.121 -5.1 23.5 336.8 61.33 -4.3 25.2 -22.0 0.00 0.00 54.84 -6.3 24.9 -20.3 -4.5 28.3 -15.3 -0.32 26.55 -17.68 126.38 -62.99 63.53
32.141 -4.8 23.4 336.7 61.33 -4.0 24.9 -22.1 0.00 0.00 56.23 -6.3 24.8 -20.1 -4.2 27.9 -15.2 0.29 26.23 -17.49 126.70 -63.08 63.70
32.161 -4.6 23.4 336.7 61.33 -3.7 24.6 -22.2 0.00 0.00 56.23 -5.7 24.3 -20.4 -3.8 27.8 -15.2 0.62 25.96 -17.48 127.01 -63.18 63.88
32.181 -4.3 23.4 336.6 59.36 -3.6 24.5 -22.0 0.00 0.00 56.23 -5.8 24.2 -20.2 -3.5 27.8 -15.2 1.01 25.90 -17.51 127.33 -63.28 64.05
32.201 -4.1 23.4 336.6 59.36 -3.3 24.5 -22.1 0.00 0.00 56.23 -5.6 24.1 -20.2 -3.8 27.3 -15.5 1.02 25.63 -17.66 127.64 -63.37 64.19
32.221 -3.8 23.4 336.5 59.36 -3.0 24.5 -22.4 0.00 0.00 56.23 -5.3 24.3 -20.4 -3.4 27.6 -15.2 1.05 25.51 -17.63 127.96 -63.47 64.33
32.241 -3.6 23.4 336.5 59.36 -3.0 24.4 -22.8 0.00 0.00 56.23 -5.0 24.1 -20.8 -3.1 27.4 -15.7 1.41 25.54 -17.68 128.27 -63.56 64.47
32.261 -3.3 23.3 336.4 59.36 -2.7 24.5 -22.7 0.00 0.00 56.23 -5.2 24.1 -21.2 -3.1 27.1 -16.0 1.56 25.34 -18.05 128.59 -63.66 64.61
32.281 -3.0 23.3 336.4 62.76 -2.0 24.4 -22.4 0.00 0.00 56.23 -4.6 24.3 -20.7 -2.8 27.4 -16.2 1.70 25.38 -18.25 128.90 -63.75 64.75
32.302 -2.8 23.3 336.3 62.76 -1.4 24.4 -22.2 0.00 0.00 56.23 -3.8 24.0 -20.6 -2.5 27.7 -15.7 2.00 25.67 -18.11 129.22 -63.84 64.92
32.322 -2.5 23.3 336.3 62.76 -1.0 24.6 -22.0 0.00 0.00 56.23 -3.4 24.3 -20.2 -2.4 28.1 -15.4 2.19 25.95 -17.71 129.54 -63.94 65.09
32.342 -2.3 23.2 336.2 62.76 -0.9 24.9 -22.1 0.00 0.00 57.71 -3.1 24.6 -20.4 -2.0 28.3 -15.1 2.44 26.20 -17.39 129.85 -64.03 65.27
32.362 -2.1 23.2 336.2 62.76 -0.9 25.0 -22.1 0.00 0.00 57.71 -3.4 24.8 -20.4 -2.1 28.4 -15.5 2.63 26.35 -17.46 130.17 -64.13 65.44
32.382 -1.9 23.2 336.2 61.47 -0.7 25.3 -22.1 0.00 0.00 57.71 -3.1 24.9 -20.4 -1.9 28.4 -15.3 2.71 26.41 -17.56 130.48 -64.22 65.61
32.402 -1.7 23.2 336.1 61.47 -0.6 25.5 -21.9 0.00 0.00 57.71 -3.1 25.4 -20.3 -1.9 28.9 -15.5 2.79 26.63 -17.48 130.80 -64.32 65.75
32.422 -1.5 23.2 336.1 61.47 -0.3 25.7 -21.5 0.00 0.00 57.71 -2.8 25.4 -20.0 -1.6 29.3 -15.2 2.96 27.07 -17.39 131.11 -64.42 65.90
32.442 -1.3 23.2 336.1 61.47 -0.2 25.9 -21.5 0.00 0.00 57.71 -2.6 25.7 -19.8 -1.3 29.2 -14.7 3.25 27.23 -17.01 131.43 -64.51 66.04
32.462 -1.1 23.2 336.1 61.47 -0.1 25.7 -21.5 0.00 0.00 57.71 -2.6 25.7 -19.9 -1.4 29.4 -14.8 3.34 27.29 -16.76 131.75 -64.61 66.18
32.483 -1.0 23.2 336.1 61.13 0.4 25.5 -21.0 0.00 0.00 57.71 -2.5 25.5 -19.7 -1.6 29.3 -15.0 3.22 27.33 -16.87 132.06 -64.71 66.33
32.503 -0.8 23.2 336.0 61.13 0.8 25.3 -20.8 0.00 0.00 57.71 -1.7 25.3 -19.1 -1.7 29.3 -15.1 3.07 27.30 -17.01 132.38 -64.80 66.46
32.523 -0.6 23.2 336.0 61.13 0.7 25.2 -20.8 0.00 0.00 57.71 -1.7 25.0 -19.2 -1.6 29.5 -15.1 3.09 27.43 -17.02 132.69 -64.90 66.59
32.543 -0.5 23.2 336.0 61.13 0.7 25.2 -20.9 0.00 0.00 59.18 -1.9 25.1 -19.3 -1.5 29.1 -15.2 3.18 27.30 -17.03 133.01 -65.00 66.72
32.563 -0.4 23.2 336.0 61.13 1.0 25.1 -21.0 0.00 0.00 59.18 -1.6 25.1 -19.5 -1.7 29.3 -15.7 3.12 27.18 -17.29 133.33 -65.10 66.85
32.583 -0.3 23.2 336.0 62.10 1.2 25.0 -21.0 0.00 0.00 59.18 -1.5 25.0 -19.4 -1.1 29.0 -15.4 3.35 27.15 -17.36 133.64 -65.20 66.98
32.603 -0.2 23.2 336.0 62.10 1.3 25.0 -21.0 0.00 0.00 59.18 -1.2 24.9 -19.4 -1.3 29.3 -15.8 3.56 27.19 -17.36 133.96 -65.31 67.12
32.623 -0.1 23.1 336.0 62.10 1.2 24.8 -21.3 0.00 0.00 59.18 -1.2 24.9 -19.4 -0.9 28.8 -15.6 3.67 27.10 -17.41 134.27 -65.41 67.25
32.643 -0.1 23.1 336.1 62.10 1.2 24.9 -21.5 0.00 0.00 59.18 -1.4 24.6 -20.1 -1.1 28.9 -16.0 3.80 26.88 -17.51 134.59 -65.51 67.39
32.663 -0.0 23.1 336.1 62.10 1.5 24.8 -21.2 0.00 0.00 59.18 -1.2 25.1 -20.0 -1.3 29.0 -16.3 3.62 26.99 -17.82 134.90 -65.61 67.52
32.683 0.0 23.0 336.1 63.67 1.5 24.7 -20.8 0.00 0.00 59.18 -0.8 24.7 -19.4 -0.8 28.9 -16.0 3.73 26.96 -17.80 135.21 -65.71 67.65
32.703 0.0 23.0 336.1 63.67 1.1 24.9 -20.9 0.00 0.00 59.18 -1.3 24.9 -19.3 -0.9 29.0 -15.6 3.89 26.90 -17.46 135.53 -65.81 67.80
32.724 0.1 23.0 336.1 63.67 0.7 25.0 -21.1 0.00 0.00 59.18 -1.6 25.1 -19.7 -1.3 29.2 -15.8 3.66 27.03 -17.34 135.84 -65.91 67.94
32.743 0.0 22.9 336.1 63.67 0.6 24.9 -21.1 0.00 0.00 60.56 -2.1 25.2 -19.5 -1.5 29.4 -16.0 3.42 27.21 -17.50 136.16 -66.01 68.09
32.763 0.0 22.9 336.2 63.67 0.8 24.9 -21.2 0.00 0.00 60.56 -1.7 25.0 -19.7 -1.6 29.6 -15.8 3.28 27.37 -17.44 136.47 -66.12 68.23
32.784 -0.0 22.9 336.2 65.43 0.7 25.0 -21.2 0.00 0.00 60.56 -1.8 25.2 -19.8 -1.8 29.6 -15.5 3.11 27.47 -17.17 136.78 -66.22 68.38
32.804 -0.1 22.8 336.2 65.43 0.7 24.9 -21.4 0.00 0.00 60.56 -1.9 25.1 -19.8 -2.2 29.9 -15.8 2.85 27.63 -17.16 137.09 -66.33 68.53
32.824 -0.2 22.8 336.2 65.43 0.9 24.8 -21.3 0.00 0.00 60.56 -1.9 25.1 -20.1 -1.9 29.4 -16.0 2.78 27.53 -17.41 137.41 -66.43 68.69
32.844 -0.2 22.8 336.3 65.43 0.9 24.7 -21.2 0.00 0.00 60.56 -1.6 24.9 -19.7 -1.9 29.5 -15.8 2.92 27.34 -17.41 137.72 -66.53 68.85
32.864 -0.3 22.8 336.3 65.43 0.6 24.7 -21.2 0.00 0.00 60.56 -1.9 24.9 -19.9 -1.7 29.1 -15.8 3.00 27.18 -17.29 138.04 -66.64 69.00
32.884 -0.4 22.8 336.3 62.71 0.5 24.9 -20.9 0.00 0.00 60.56 -2.2 25.0 -19.7 -2.2 29.3 -16.0 2.86 27.07 -17.38 138.35 -66.74 69.16
32.904 -0.5 22.7 336.4 62.71 0.6 24.9 -20.5 0.00 0.00 60.56 -2.0 25.3 -19.3 -2.2 29.6 -15.4 2.62 27.28 -17.12 138.67 -66.84 69.28
32.924 -0.6 22.7 336.4 62.71 0.4 24.7 -20.4 0.00 0.00 60.56 -1.9 25.2 -18.9 -2.2 29.8 -15.2 2.61 27.51 -16.66 138.98 -66.94 69.39
32.944 -0.7 22.7 336.4 62.71 0.3 24.4 -20.2 0.00 0.00 62.00 -2.4 24.8 -19.0 -2.4 29.3 -15.1 2.51 27.36 -16.46 139.30 -67.05 69.50
32.964 -0.8 22.7 336.4 62.71 0.3 24.2 -19.9 0.00 0.00 62.00 -2.1 24.7 -18.5 -2.5 29.3 -15.0 2.35 27.09 -16.31 139.61 -67.16 69.61
32.984 -0.8 22.6 336.5 68.52 0.1 24.0 -19.9 0.00 0.00 62.00 -2.4 24.4 -18.4 -2.7 28.7 -14.8 2.18 26.78 -16.15 139.93 -67.26 69.72
33.004 -0.9 22.6 336.5 68.52 -0.1 24.1 -20.1 0.00 0.00 62.00 -2.6 24.4 -18.5 -2.6 28.7 -14.6 2.08 26.49 -16.00 140.24 -67.37 69.90
33.024 -1.0 22.6 336.5 68.52 -0.3 24.3 -20.3 0.00 0.00 62.00 -2.7 24.4 -18.9 -2.7 28.7 -14.9 2.05 26.51 -16.04 140.56 -67.48 70.07
33.044 -1.1 22.6 336.5 68.52 -0.3 24.5 -20.0 0.00 0.00 62.00 -3.1 24.9 -18.8 -3.4 28.8 -15.1 1.65 26.54 -16.29 140.87 -67.58 70.24
33.065 -1.1 22.5 336.5 68.52 -0.2 24.4 -19.8 0.00 0.00 62.00 -2.7 24.8 -18.4 -3.4 29.0 -14.9 1.31 26.69 -16.32 141.18 -67.69 70.41
33.085 -1.2 22.5 336.5 69.11 -0.3 24.2 -19.6 0.00 0.00 62.00 -2.7 24.7 -18.3 -2.9 28.7 -14.8 1.50 26.67 -16.21 141.50 -67.79 70.58
33.105 -1.3 22.5 336.6 69.11 -0.5 24.0 -19.5 0.00 0.00 62.00 -2.9 24.4 -18.0 -3.2 28.8 -14.6 1.56 26.54 -16.09 141.82 -67.90 70.75
33.125 -1.3 22.5 336.6 69.11 -0.6 24.0 -19.6 0.00 0.00 62.00 -3.2 24.4 -18.2 -3.3 28.5 -14.5 1.33 26.41 -16.01 142.14 -68.00 70.92
33.145 -1.4 22.5 336.6 69.11 -0.6 23.9 -19.6 0.00 0.00 63.41 -3.0 24.4 -18.0 -3.5 28.6 -14.5 1.16 26.30 -15.97 142.46 -68.11 71.08
33.165 -1.4 22.5 336.6 69.11 -0.5 23.9 -19.5 0.00 0.00 63.41 -3.2 24.2 -18.2 -3.6 28.2 -14.6 0.96 26.18 -16.04 142.77 -68.22 71.25
33.185 -1.5 22.5 336.6 68.67 -0.2 24.1 -19.2 0.00 0.00 63.41 -2.8 24.4 -17.9 -3.5 28.4 -14.6 0.93 26.13 -16.14 143.09 -68.33 71.42
33.205 -1.6 22.5 336.6 68.67 -0.3 24.1 -19.0 0.00 0.00 63.41 -2.6 24.6 -17.5 -3.4 28.5 -14.3 1.04 26.25 -15.96 143.41 -68.44 71.58
33.225 -1.6 22.5 336.6 68.67 -0.8 23.9 -19.2 0.00 0.00 63.41 -3.1 24.4 -17.5 -3.2 28.5 -13.9 1.14 26.25 -15.59 143.73 -68.55 71.73
33.245 -1.7 22.5 336.6 68.67 -0.8 23.8 -19.6 0.00 0.00 63.41 -3.5 24.3 -18.0 -3.7 28.5 -14.4 0.95 26.25 -15.63 144.05 -68.66 71.89
33.265 -1.8 22.5 336.6 68.67 -0.8 23.9 -19.9 0.00 0.00 63.41 -3.2 24.3 -18.3 -3.8 28.3 -14.7 0.67 26.16 -16.03 144.37 -68.77 72.04
33.285 -1.8 22.5 336.5 70.53 -0.6 24.0 -19.7 0.00 0.00 63.41 -3.5 24.4 -18.5 -3.9 28.3 -15.2 0.58 26.09 -16.45 144.69 -68.88 72.19
33.306 -1.9 22.5 336.5 70.53 -0.1 24.1 -19.4 0.00 0.00 63.41 -2.9 24.6 -18.0 -4.3 28.0 -15.4 0.32 25.97 -16.82 145.00 -68.99 72.36
33.326 -1.9 22.5 336.5 70.53 0.2 24.2 -19.2 0.00 0.00 63.41 -2.4 24.6 -17.9 -4.3 28.3 -15.2 0.11 25.96 -16.84 145.32 -69.10 72.53
33.346 -2.0 22.5 336.5 70.53 0.2 24.0 -19.2 0.00 0.00 64.91 -2.4 24.7 -17.8 -3.7 28.2 -14.9 0.41 26.04 -16.64 145.64 -69.21 72.69
33.366 -2.1 22.5 336.5 70.53 0.3 23.7 -19.3 0.00 0.00 64.91 -2.3 24.3 -17.8 -4.0 27.8 -14.9 0.52 25.79 -16.57 145.96 -69.33 72.86
33.386 -2.1 22.5 336.5 66.80 0.5 23.3 -19.2 0.00 0.00 64.91 -2.2 24.1 -17.9 -3.7 27.7 -15.0 0.47 25.50 -16.64 146.28 -69.44 73.03
33.406 -2.2 22.5 336.5 66.80 0.6 23.1 -19.0 0.00 0.00 64.91 -1.9 23.6 -17.5 -3.6 27.2 -14.7 0.62 25.17 -16.49 146.60 -69.56 73.14
33.426 -2.3 22.5 336.4 66.80 0.7 23.1 -19.0 0.00 0.00 64.91 -2.0 23.8 -17.6 -3.7 26.8 -14.7 0.58 24.72 -16.38 146.92 -69.67 73.25
33.446 -2.4 22.5 336.4 66.80 1.0 23.0 -19.1 0.00 0.00 64.91 -1.7 23.6 -17.6 -3.4 27.1 -14.6 0.67 24.65 -16.30 147.24 -69.79 73.36
33.466 -2.5 22.6 336.4 66.80 1.2 22.9 -19.3 0.00 0.00 64.91 -1.3 23.6 -17.8 -3.1 26.9 -14.9 0.98 24.69 -16.35 147.57 -69.90 73.47
33.486 -2.6 22.6 336.4 66.73 1.0 22.8 -19.7 0.00 0.00 64.91 -1.4 23.5 -18.0 -2.6 26.7 -15.0 1.37 24.46 -16.53 147.89 -70.02 73.58
33.506 -2.6 22.6 336.4 66.73 0.6 22.8 -20.0 0.00 0.00 64.91 -1.7 23.4 -18.6 -3.3 26.8 -15.4 1.27 24.38 -16.71 148.21 -70.13 73.69
33.526 -2.7 22.6 336.4 66.73 0.2 22.8 -20.0 0.00 0.00 64.91 -2.1 23.5 -18.6 -3.3 26.8 -15.6 0.93 24.45 -16.95 148.54 -70.25 73.79
33.546 -2.8 22.6 336.3 66.73 -0.1 22.8 -20.2 0.00 0.00 66.32 -2.6 23.5 -18.7 -3.5 26.8 -15.6 0.86 24.42 -16.98 148.87 -70.36 73.90
33.567 -2.9 22.6 336.3 66.73 -0.2 22.9 -20.4 0.00 0.00 66.32 -2.7 23.7 -19.1 -3.6 26.5 -15.7 0.75 24.28 -16.98 149.19 -70.49 74.00
33.587 -3.0 22.7 336.3 71.20 -0.5 23.0 -20.3 0.00 0.00 66.32 -2.9 23.7 -19.1 -3.7 26.6 -15.3 0.63 24.19 -16.83 149.52 -70.61 74.11
33.607 -3.1 22.7 336.3 71.20 -0.5 23.1 -20.2 0.00 0.00 66.32 -3.2 23.8 -18.9 -4.0 26.9 -15.5 0.38 24.33 -16.73 149.85 -70.73 74.26
33.627 -3.3 22.7 336.2 71.20 -0.6 23.2 -20.3 0.00 0.00 66.32 -3.0 24.0 -18.9 -3.7 26.5 -15.2 0.30 24.28 -16.66 150.17 -70.85 74.41
33.647 -3.4 22.8 336.2 71.20 -1.1 23.1 -20.7 0.00 0.00 66.32 -3.4 23.9 -19.2 -3.8 26.7 -15.3 0.38 24.17 -16.57 150.50 -70.97 74.56
33.667 -3.6 22.8 336.2 71.20 -1.5 23.3 -21.0 0.00 0.00 66.32 -4.0 24.0 -19.6 -4.5 26.9 -15.9 -0.00 24.35 -16.91 150.83 -71.09 74.71
33.687 -3.8 22.8 336.2 70.01 -1.6 23.3 -20.8 0.00 0.00 66.32 -4.3 24.1 -19.8 -4.8 26.8 -16.2 -0.54 24.46 -17.36 151.16 -71.21 74.86
33.707 -3.9 22.9 336.2 70.01 -1.7 23.5 -20.4 0.00 0.00 66.32 -4.1 24.0 -19.3 -5.2 27.0 -16.0 -0.93 24.51 -17.40 151.49 -71.32 74.99
33.727 -4.1 22.9 336.1 70.01 -1.8 23.7 -20.2 0.00 0.00 66.32 -4.4 24.4 -19.1 -5.0 27.1 -15.4 -1.04 24.61 -17.03 151.82 -71.44 75.12
33.747 -4.3 23.0 336.1 70.01 -2.0 23.8 -20.0 0.00 0.00 67.68 -4.5 24.6 -18.8 -5.3 27.3 -15.5 -1.15 24.74 -16.76 152.15 -71.56 75.24
33.767 -4.4 23.0 336.1 70.01 -2.0 23.7 -19.9 0.00 0.00 67.68 -4.7 24.5 -18.8 -5.5 27.3 -15.2 -1.45 24.84 -16.65 152.48 -71.68 75.37
33.787 -4.5 23.1 336.1 74.70 -2.0 23.5 -19.8 0.00 0.00 67.68 -4.5 24.4 -18.5 -5.3 27.1 -15.0 -1.46 24.73 -16.40 152.81 -71.80 75.50
33.807 -4.6 23.1 336.0 74.70 -2.1 23.4 -19.7 0.00 0.00 67.68 -4.8 24.2 -18.5 -5.3 27.2 -15.1 -1.38 24.67 -16.36 153.14 -71.92 75.68
33.828 -4.7 23.2 336.0 74.70 -2.1 23.4 -19.5 0.00 0.00 67.68 -4.7 24.2 -18.3 -5.3 27.2 -15.1 -1.42 24.68 -16.43 153.47 -72.05 75.86
33.848 -4.8 23.2 336.0 74.70 -2.1 23.4 -19.7 0.00 0.00 67.68 -4.8 24.2 -18.2 -5.5 27.6 -15.3 -1.52 24.87 -16.55 153.80 -72.17 76.04
33.868 -4.9 23.3 335.9 74.70 -2.1 23.4 -19.9 0.00 0.00 67.68 -4.7 24.3 -18.6 -5.6 27.5 -15.5 -1.68 25.03 -16.80 154.13 -72.29 76.22
33.888 -4.9 23.3 335.9 73.20 -2.2 23.0 -20.0 0.00 0.00 67.68 -4.8 24.1 -18.7 -6.0 27.6 -15.9 -1.90 25.03 -17.11 154.46 -72.41 76.40
33.908 -4.9 23.3 335.9 73.20 -2.2 22.8 -20.2 0.00 0.00 67.68 -4.8 23.7 -18.8 -5.8 27.1 -16.0 -2.00 24.80 -17.34 154.79 -72.53 76.55
33.928 -4.9 23.4 335.8 73.20 -2.4 22.7 -20.5 0.00 0.00 69.16 -4.7 23.7 -19.0 -5.5 26.6 -15.9 -1.80 24.31 -17.38 155.12 -72.65 76.70
33.948 -4.9 23.4 335.8 73.20 -2.5 22.8 -20.8 0.00 0.00 69.16 -5.2 23.5 -19.4 -5.8 27.0 -16.2 -1.80 24.23 -17.46 155.45 -72.77 76.85
33.968 -4.9 23.4 335.7 73.20 -2.5 23.1 -20.7 0.00 0.00 69.16 -5.1 23.9 -19.6 -6.0 27.2 -16.8 -1.99 24.51 -17.87 155.78 -72.90 77.00
33.988 -4.9 23.4 335.7 70.61 -2.3 23.1 -20.7 0.00 0.00 69.16 -5.1 24.0 -19.3 -5.6 27.5 -16.4 -1.88 24.77 -17.99 156.11 -73.03 77.15
34.008 -4.8 23.5 335.6 70.61 -2.1 23.2 -20.7 0.00 0.00 69.16 -4.8 23.9 -19.6 -5.6 27.3 -16.3 -1.73 24.78 -17.69 156.44 -73.15 77.26
34.029 -4.8 23.5 335.6 70.61 -2.0 23.4 -20.7 0.00 0.00 69.16 -4.8 24.2 -19.4 -5.7 27.2 -16.2 -1.81 24.61 -17.55 156.78 -73.28 77.37
34.049 -4.8 23.5 335.5 70.61 -1.8 23.7 -20.6 0.00 0.00 69.16 -4.5 24.5 -19.6 -5.8 27.5 -16.5 -1.92 24.72 -17.64 157.11 -73.41 77.48
34.069 -4.7 23.5 335.5 70.61 -1.8 24.0 -20.5 0.00 0.00 69.16 -4.4 24.8 -19.4 -5.2 27.9 -16.3 -1.66 25.04 -17.64 157.44 -73.54 77.59
34.089 -4.7 23.5 335.4 75.85 -1.6 24.4 -20.2 0.00 0.00 69.16 -4.4 25.1 -19.3 -5.3 28.2 -16.0 -1.41 25.38 -17.32 157.77 -73.66 77.70
34.109 -4.6 23.5 335.4 75.85 -1.7 24.3 -20.1 0.00 0.00 69.16 -4.1 25.4 -18.9 -5.0 28.6 -16.0 -1.33 25.71 -17.16 158.11 -73.79 77.87
34.129 -4.6 23.5 335.3 75.85 -1.8 24.0 -20.2 0.00 0.00 70.58 -4.5 25.1 -19.1 -5.2 28.4 -16.0 -1.31 25.77 -17.19 158.44 -73.92 78.03
34.149 -4.5 23.6 335.3 75.85 -1.6 23.7 -20.3 0.00 0.00 70.58 -4.3 24.8 -19.1 -5.4 28.0 -16.1 -1.51 25.46 -17.24 158.77 -74.05 78.20
34.169 -4.4 23.6 335.2 75.85 -1.7 23.8 -20.6 0.00 0.00 70.58 -4.3 24.6 -19.3 -5.3 27.7 -16.4 -1.58 25.11 -17.44 159.10 -74.18 78.36
34.189 -4.4 23.6 335.2 75.93 -1.7 23.7 -21.1 0.00 0.00 70.58 -4.4 24.8 -19.7 -5.2 27.7 -16.5 -1.51 24.96 -17.66 159.44 -74.31 78.53
34.209 -4.3 23.6 335.1 75.93 -1.9 23.3 -21.4 0.00 0.00 70.58 -4.3 24.4 -20.2 -5.3 27.7 -16.9 -1.50 24.97 -17.91 159.77 -74.44 78.69
34.229 -4.2 23.6 335.1 75.93 -1.8 22.9 -21.4 0.00 0.00 70.58 -4.8 24.0 -20.5 -5.6 27.2 -17.4 -1.68 24.80 -18.37 160.10 -74.57 78.84
34.249 -4.1 23.6 335.0 75.93 -1.3 22.5 -21.3 0.00 0.00 70.58 -4.1 23.5 -20.0 -5.6 27.2 -17.6 -1.77 24.58 -18.70 160.44 -74.70 79.00
34.270 -4.0 23.6 335.0 75.93 -1.0 22.3 -21.4 0.00 0.00 70.58 -3.7 23.3 -20.3 -5.4 27.1 -17.7 -1.67 24.55 -18.83 160.77 -74.83 79.16
34.290 -3.9 23.6 334.9 78.66 -0.8 22.3 -21.3 0.00 0.00 70.58 -3.6 23.1 -20.2 -5.4 26.7 -17.6 -1.60 24.34 -18.84 161.11 -74.96 79.31
34.310 -3.8 23.6 334.9 78.66 -0.5 22.2 -21.2 0.00 0.00 70.58 -3.2 23.1 -20.0 -5.2 26.9 -17.9 -1.49 24.22 -18.94 161.44 -75.09 79.49
34.330 -3.7 23.6 334.9 78.66 -0.4 22.3 -21.3 0.00 0.00 72.11 -2.9 22.9 -20.1 -4.9 26.5 -17.8 -1.23 24.14 -19.09 161.78 -75.22 79.67
34.350 -3.6 23.6 334.8 78.66 -0.6 22.5 -21.5 0.00 0.00 72.11 -3.1 23.3 -20.2 -5.0 26.8 -17.9 -1.14 24.10 -19.10 162.11 -75.35 79.85
34.371 -3.5 23.6 334.8 78.66 -0.6 22.6 -21.9 0.00 0.00 72.11 -3.3 23.4 -20.6 -4.8 27.1 -17.9 -1.09 24.36 -19.14 162.45 -75.48 80.04
34.390 -3.4 23.6 334.8 77.62 -0.7 22.6 -22.2 0.00 0.00 72.11 -3.2 23.4 -20.9 -5.2 27.0 -17.9 -1.19 24.45 -19.20 162.78 -75.61 80.22
34.411 -3.3 23.6 334.7 77.62 -0.9 22.8 -22.4 0.00 0.00 72.11 -3.5 23.5 -21.2 -5.5 27.2 -18.4 -1.55 24.52 -19.45 163.12 -75.75 80.38
34.431 -3.3 23.6 334.7 77.62 -1.0 22.9 -22.2 0.00 0.00 72.11 -3.6 23.8 -21.2 -5.7 27.0 -18.8 -1.81 24.51 -19.91 163.46 -75.88 80.54
34.451 -3.2 23.6 334.6 77.62 -0.8 22.9 -22.0 0.00 0.00 72.11 -3.5 23.8 -20.9 -5.5 27.2 -18.4 -1.85 24.49 -19.95 163.79 -76.01 80.70
34.471 -3.1 23.6 334.6 77.62 -0.7 22.7 -22.0 0.00 0.00 72.11 -3.2 23.7 -20.8 -5.2 27.2 -18.4 -1.64 24.57 -19.73 164.13 -76.15 80.86
34.491 -3.0 23.7 334.6 77.31 -0.9 22.6 -22.0 0.00 0.00 72.11 -3.4 23.4 -20.8 -5.0 27.0 -18.0 -1.45 24.43 -19.53 164.47 -76.28 81.02
34.511 -2.9 23.7 334.5 77.31 -1.1 22.7 -21.9 0.00 0.00 72.11 -3.6 23.5 -20.9 -5.2 27.0 -18.0 -1.50 24.32 -19.34 164.81 -76.42 81.16
34.531 -2.8 23.8 334.5 77.31 -1.3 23.0 -22.0 0.00 0.00 73.69 -3.6 23.6 -20.7 -5.4 27.2 -18.4 -1.72 24.41 -19.53 165.14 -76.55 81.31
34.551 -2.7 23.8 334.5 77.31 -1.5 23.5 -22.1 0.00 0.00 73.69 -4.1 24.2 -21.0 -5.7 27.3 -18.3 -1.98 24.54 -19.68 165.48 -76.69 81.46
34.571 -2.6 23.8 334.4 77.31 -1.5 23.6 -21.9 0.00 0.00 73.69 -4.2 24.6 -20.9 -6.2 27.9 -18.7 -2.34 24.86 -19.77 165.81 -76.83 81.60
34.591 -2.5 23.9 334.4 76.61 -1.5 23.7 -21.6 0.00 0.00 73.69 -4.1 24.6 -20.6 -6.0 27.9 -18.3 -2.49 25.13 -19.71 166.15 -76.96 81.75
34.612 -2.4 23.9 334.4 76.61 -1.3 24.0 -21.4 0.00 0.00 73.69 -4.1 24.9 -20.4 -6.0 28.3 -18.0 -2.40 25.28 -19.32 166.48 -77.10 81.88
34.631 -2.3 23.9 334.4 76.61 -1.1 24.2 -21.6 0.00 0.00 73.69 -3.8 25.2 -20.4 -5.9 28.2 -17.8 -2.36 25.37 -19.02 166.82 -77.23 82.01
34.651 -2.2 24.0 334.3 76.61 -1.1 24.5 -21.7 0.00 0.00 73.69 -3.7 25.3 -20.8 -6.1 28.4 -18.3 -2.37 25.43 -19.15 167.15 -77.37 82.14
34.671 -2.0 24.0 334.3 76.61 -1.4 24.7 -21.6 0.00 0.00 73.69 -3.8 25.7 -20.7 -5.9 28.6 -18.3 -2.34 25.62 -19.36 167.49 -77.51 82.27
34.691 -1.9 24.1 334.3 80.75 -1.4 24.8 -21.5 0.00 0.00 73.69 -4.2 25.7 -20.6 -6.0 28.3 -18.3 -2.29 25.54 -19.31 167.82 -77.64 82.40
34.712 -1.8 24.1 334.3 80.75 -0.8 24.7 -21.1 0.00 0.00 73.69 -3.7 25.9 -20.4 -6.0 28.2 -18.4 -2.32 25.33 -19.38 168.15 -77.78 82.57
34.732 -1.6 24.2 334.2 80.75 -0.3 24.6 -21.0 0.00 0.00 75.15 -3.1 25.6 -19.9 -5.5 28.3 -18.0 -2.09 25.29 -19.26 168.49 -77.92 82.74
34.752 -1.5 24.2 334.2 80.75 0.1 24.4 -20.9 0.00 0.00 75.15 -2.5 25.7 -20.0 -4.8 28.2 -17.6 -1.50 25.26 -18.90 168.82 -78.06 82.91
34.772 -1.3 24.2 334.2 80.75 0.3 24.2 -20.8 0.00 0.00 75.15 -2.1 25.3 -19.6 -4.2 27.9 -17.7 -0.85 25.05 -18.77 169.14 -78.20 83.07
34.792 -1.1 24.3 334.2 81.47 0.5 24.1 -21.0 0.00 0.00 75.15 -2.1 25.3 -19.8 -4.3 27.9 -17.6 -0.59 24.86 -18.78 169.47 -78.34 83.24
34.812 -1.0 24.3 334.2 81.47 0.7 23.9 -21.1 0.00 0.00 75.15 -1.7 25.1 -20.0 -3.9 27.8 -17.7 -0.47 24.77 -18.76 169.80 -78.48 83.41
34.833 -0.8 24.3 334.2 81.47 0.8 23.7 -21.0 0.00 0.00 75.15 -1.7 24.8 -20.0 -3.8 27.3 -18.3 -0.26 24.46 -19.11 170.13 -78.62 83.58
34.852 -0.6 24.3 334.1 81.47 1.0 24.0 -21.1 0.00 0.00 75.15 -1.7 24.9 -19.9 -3.6 27.4 -18.2 -0.11 24.29 -19.39 170.45 -78.76 83.74
34.873 -0.4 24.3 334.1 81.47 1.4 24.3 -21.4 0.00 0.00 75.15 -1.2 25.4 -20.2 -3.1 27.9 -18.4 0.25 24.59 -19.45 170.78 -78.91 83.91
34.893 -0.2 24.4 334.1 78.53 1.8 24.3 -21.6 0.00 0.00 75.15 -0.9 25.4 -20.5 -2.8 28.5 -18.4 0.66 25.11 -19.53 171.11 -79.05 84.07
34.912 -0.1 24.4 334.1 78.53 1.9 24.1 -21.6 0.00 0.00 75.15 -0.6 25.4 -20.7 -2.3 28.3 -18.3 1.05 25.27 -19.42 171.44 -79.19 84.20
34.933 0.1 24.4 334.1 78.53 2.0 24.3 -21.4 0.00 0.00 76.74 -0.8 25.2 -20.5 -1.9 28.4 -18.0 1.46 25.21 -19.20 171.77 -79.33 84.32
34.953 0.2 24.4 334.1 78.53 2.2 24.4 -21.2 0.00 0.00 76.74 -0.3 25.7 -20.4 -2.1 28.4 -18.2 1.58 25.26 -19.13 172.09 -79.47 84.44
34.973 0.3 24.4 334.1 78.53 2.1 24.6 -20.9 0.00 0.00 76.74 -0.3 25.6 -20.0 -1.7 28.7 -17.7 1.68 25.38 -18.96 172.42 -79.62 84.56
34.993 0.4 24.4 334.1 82.58 2.1 24.7 -20.7 0.00 0.00 76.74 -0.5 25.9 -19.8 -1.8 28.5 -17.8 1.75 25.41 -18.73 172.74 -79.76 84.68
35.013 0.5 24.4 334.1 82.58 2.4 24.8 -20.3 0.00 0.00 76.74 -0.3 25.8 -19.6 -1.7 28.8 -17.7 1.70 25.44 -18.74 173.06 -79.91 84.84
35.033 0.5 24.4 334.1 82.58 2.5 25.1 -20.2 0.00 0.00 76.74 0.2 26.2 -19.0 -1.4 29.1 -17.7 1.84 25.70 -18.70 173.39 -80.05 85.01
35.054 0.6 24.4 334.1 82.58 2.4 25.1 -20.2 0.00 0.00 76.74 -0.1 26.2 -19.4 -1.0 29.3 -17.3 2.12 25.93 -18.50 173.71 -80.19 85.17
35.074 0.6 24.4 334.1 82.58 2.5 25.3 -20.0 0.00 0.00 76.74 -0.0 26.3 -19.1 -1.0 29.1 -17.1 2.26 25.89 -18.23 174.04 -80.34 85.33
35.094 0.6 24.4 334.1 82.90 2.6 25.5 -19.9 0.00 0.00 76.74 0.1 26.5 -19.1 -0.9 29.4 -16.7 2.28 25.92 -17.94 174.36 -80.48 85.50
35.114 0.6 24.5 334.2 82.90 2.3 25.7 -20.0 0.00 0.00 76.74 0.1 26.8 -18.9 -0.8 29.6 -17.1 2.35 26.20 -17.93 174.69 -80.63 85.65
35.134 0.6 24.5 334.2 82.90 2.1 25.5 -20.1 0.00 0.00 78.24 -0.4 26.8 -19.2 -1.0 29.6 -16.8 2.24 26.26 -17.97 175.01 -80.77 85.81
35.154 0.6 24.5 334.2 82.90 2.1 25.0 -19.9 0.00 0.00 78.24 -0.4 26.4 -19.2 -1.5 29.6 -17.3 1.86 26.24 -18.09 175.33 -80.92 85.96
35.174 0.6 24.5 334.2 82.90 2.2 24.8 -19.8 0.00 0.00 78.24 -0.2 25.9 -18.7 -1.0 29.2 -16.8 1.81 26.04 -18.13 175.65 -81.06 86.12
35.195 0.6 24.4 334.2 80.01 2.2 25.0 -20.0 0.00 0.00 78.24 -0.3 25.9 -19.0 -1.2 28.8 -16.7 1.94 25.64 -17.86 175.97 -81.21 86.27
35.214 0.6 24.4 334.3 80.01 2.5 25.1 -19.8 0.00 0.00 78.24 -0.1 26.3 -19.0 -1.6 28.8 -17.1 1.67 25.45 -17.98 176.29 -81.35 86.38
35.234 0.6 24.4 334.3 80.01 2.5 25.0 -19.8 0.00 0.00 78.24 0.1 26.2 -18.8 -1.3 28.9 -16.9 1.60 25.47 -18.03 176.61 -81.50 86.49
35.254 0.5 24.4 334.3 80.01 2.3 24.9 -20.1 0.00 0.00 78.24 0.0 26.1 -19.0 -1.5 28.7 -17.2 1.61 25.42 -18.03 176.92 -81.65 86.60
35.274 0.5 24.4 334.4 80.01 2.3 25.0 -20.0 0.00 0.00 78.24 -0.1 25.9 -19.3 -1.6 28.7 -17.2 1.47 25.32 -18.17 177.24 -81.80 86.71
35.295 0.4 24.4 334.4 84.68 2.3 25.2 -19.9 0.00 0.00 78.24 0.0 26.3 -18.9 -1.8 28.5 -17.3 1.31 25.20 -18.21 177.55 -81.95 86.82
35.315 0.3 24.3 334.4 84.68 2.3 25.1 -19.9 0.00 0.00 78.24 0.2 25.7 -18.9 -1.9 28.7 -17.9 1.15 25.25 -18.55 177.87 -82.09 86.98
35.335 0.3 24.3 334.4 84.68 2.2 24.9 -19.6 0.00 0.00 79.69 0.2 25.4 -18.6 -2.1 28.5 -17.6 1.01 25.26 -18.67 178.19 -82.24 87.13
35.355 0.2 24.3 334.5 84.68 2.1 24.8 -19.5 0.00 0.00 79.69 0.1 25.3 -18.4 -2.1 28.1 -17.5 0.88 24.93 -18.46 178.50 -82.40 87.29
35.375 0.1 24.2 334.5 84.68 2.2 24.8 -19.3 0.00 0.00 79.69 0.1 25.4 -18.3 -2.2 28.4 -17.1 0.79 24.85 -18.23 178.81 -82.55 87.45
35.395 0.0 24.2 334.5 84.20 2.3 24.8 -19.0 0.00 0.00 79.69 0.2 25.3 -18.0 -2.1 28.2 -17.3 0.81 24.88 -18.14 179.12 -82.70 87.60
35.415 -0.0 24.2 334.5 84.20 2.3 24.9 -18.9 0.00 0.00 79.69 0.3 25.2 -17.7 -2.1 28.4 -16.8 0.86 24.87 -18.01 179.44 -82.85 87.74
35.435 -0.1 24.2 334.6 84.20 2.3 25.1 -18.8 0.00 0.00 79.69 0.4 25.7 -17.7 -1.8 28.5 -16.4 0.94 24.99 -17.58 179.75 -83.00 87.88
35.455 -0.2 24.1 334.6 84.20 2.3 25.0 -18.5 0.00 0.00 79.69 0.3 25.5 -17.6 -2.1 28.7 -16.6 0.89 25.14 -17.46 180.06 -83.16 88.02
35.475 -0.3 24.1 334.6 84.20 2.1 25.0 -18.4 0.00 0.00 79.69 0.5 25.6 -17.1 -1.8 28.6 -16.3 0.89 25.23 -17.41 180.37 -83.31 88.16
35.496 -0.3 24.1 334.6 82.19 2.0 24.9 -18.4 0.00 0.00 79.69 0.0 25.5 -17.3 -2.0 28.4 -16.3 0.90 25.08 -17.26 180.68 -83.46 88.29
35.516 -0.4 24.1 334.7 82.19 2.3 24.7 -18.2 0.00 0.00 79.69 0.3 25.3 -17.0 -2.2 28.3 -16.4 0.67 24.89 -17.28 181.00 -83.61 88.40
35.536 -0.5 24.0 334.7 82.19 2.5 24.6 -18.0 0.00 0.00 81.21 0.5 25.2 -16.5 -1.7 28.3 -15.8 0.83 24.81 -17.01 181.31 -83.77 88.50
35.556 -0.6 24.0 334.7 82.19 2.7 24.6 -17.8 0.00 0.00 81.21 0.5 25.0 -16.2 -1.6 28.0 -16.0 1.13 24.66 -16.78 181.62 -83.92 88.61
35.576 -0.7 24.0 334.7 82.19 2.8 24.6 -17.6 0.00 0.00 81.21 0.9 25.2 -16.1 -1.4 27.8 -15.6 1.23 24.40 -16.70 181.93 -84.07 88.72
35.596 -0.8 24.0 334.8 88.18 2.5 24.6 -17.6 0.00 0.00 81.21 0.8 25.2 -15.9 -1.3 28.0 -15.6 1.35 24.39 -16.50 182.24 -84.23 88.82
35.616 -0.9 24.0 334.8 88.18 2.2 24.7 -17.8 0.00 0.00 81.21 0.3 25.3 -16.0 -1.5 27.9 -15.3 1.29 24.46 -16.33 182.55 -84.38 88.99
35.636 -1.1 24.0 334.8 88.18 2.0 24.6 -17.8 0.00 0.00 81.21 0.1 25.4 -16.3 -1.8 27.9 -15.6 1.04 24.42 -16.31 182.86 -84.53 89.16
35.656 -1.2 24.0 334.8 88.18 2.1 24.6 -17.8 0.00 0.00 81.21 0.0 25.1 -16.2 -2.2 27.9 -16.1 0.75 24.42 -16.70 183.17 -84.69 89.33
35.676 -1.3 23.9 334.8 88.18 2.4 24.5 -17.6 0.00 0.00 81.21 0.3 25.4 -16.3 -2.2 27.9 -15.7 0.57 24.41 -16.78 183.48 -84.84 89.50
35.696 -1.5 23.9 334.8 87.04 2.5 24.5 -17.0 0.00 0.00 81.21 0.6 24.9 -15.8 -2.0 27.7 -15.7 0.65 24.29 -16.63 183.79 -84.99 89.67
35.717 -1.6 23.9 334.8 87.04 2.2 24.8 -16.7 0.00 0.00 81.21 0.4 25.4 -15.2 -2.2 27.3 -15.5 0.65 23.97 -16.54 184.10 -85.14 89.82
35.737 -1.8 23.9 334.8 87.04 1.9 24.7 -16.8 0.00 0.00 82.67 0.1 25.5 -15.1 -2.3 27.3 -15.4 0.47 23.75 -16.37 184.42 -85.29 89.96
35.757 -2.0 23.9 334.8 87.04 1.5 24.7 -17.2 0.00 0.00 82.67 -0.2 25.4 -15.5 -2.6 27.2 -15.3 0.24 23.70 -16.27 184.72 -85.44 90.11
35.777 -2.2 23.9 334.8 87.04 1.1 24.8 -17.3 0.00 0.00 82.67 -0.7 25.5 -15.9 -2.9 27.4 -15.7 -0.01 23.75 -16.45 185.03 -85.59 90.26
35.797 -2.4 23.9 334.8 88.24 0.8 24.5 -17.1 0.00 0.00 82.67 -1.1 25.5 -15.6 -3.5 27.5 -15.7 -0.44 23.88 -16.63 185.34 -85.74 90.41
35.817 -2.6 23.9 334.8 88.24 0.8 24.3 -17.3 0.00 0.00 82.67 -1.2 25.0 -15.6 -3.8 27.1 -15.8 -0.93 23.77 -16.67 185.65 -85.89 90.56
35.837 -2.9 23.9 334.8 88.24 0.7 24.5 -17.6 0.00 0.00 82.67 -1.1 25.1 -16.0 -3.6 26.9 -15.8 -1.01 23.50 -16.76 185.95 -86.04 90.72
35.857 -3.1 23.9 334.8 88.24 0.4 24.7 -17.6 0.00 0.00 82.67 -1.3 25.4 -16.1 -3.6 27.3 -16.3 -0.89 23.57 -17.02 186.26 -86.19 90.87
35.877 -3.3 23.9 334.8 88.24 0.2 25.0 -17.5 0.00 0.00 82.67 -1.8 25.5 -16.1 -4.0 27.2 -16.3 -1.10 23.72 -17.26 186.57 -86.34 91.03
35.898 -3.6 24.0 334.8 90.98 0.3 25.1 -17.3 0.00 0.00 82.67 -1.5 25.8 -15.7 -4.1 27.5 -15.9 -1.39 23.81 -17.09 186.88 -86.49 91.19
35.918 -3.8 24.0 334.8 90.98 0.0 25.2 -17.5 0.00 0.00 82.67 -1.7 25.8 -15.8 -3.8 27.6 -15.7 -1.35 24.00 -16.85 187.19 -86.64 91.37
35.938 -4.1 24.0 334.8 90.98 -0.3 25.1 -17.7 0.00 0.00 84.17 -2.0 25.9 -16.0 -4.2 27.7 -16.1 -1.38 24.10 -16.95 187.50 -86.80 91.55
35.958 -4.3 24.0 334.8 90.98 -0.6 25.0 -17.5 0.00 0.00 84.17 -2.4 25.7 -16.1 -4.7 27.8 -16.5 -1.81 24.20 -17.34 187.80 -86.95 91.73
35.978 -4.6 24.0 334.8 90.98 -0.5 24.8 -17.2 0.00 0.00 84.17 -2.4 25.7 -15.7 -4.8 28.1 -16.4 -2.12 24.42 -17.53 188.11 -87.10 91.91
35.998 -4.8 24.0 334.7 88.42 -0.6 24.6 -17.0 0.00 0.00 84.17 -2.2 25.3 -15.4 -4.7 27.8 -16.0 -2.09 24.41 -17.30 188.41 -87.25 92.09
36.018 -5.1 24.0 334.7 88.42 -0.7 24.6 -16.9 0.00 0.00 84.17 -2.6 25.4 -15.4 -4.6 27.6 -15.9 -2.00 24.14 -17.02 188.72 -87.40 92.23
36.038 -5.3 24.1 334.7 88.42 -0.9 24.6 -16.9 0.00 0.00 84.17 -2.5 25.3 -15.2 -4.9 27.8 -16.0 -2.08 24.15 -16.97 189.03 -87.55 92.38
36.058 -5.5 24.1 334.7 88.42 -1.5 24.6 -17.2 0.00 0.00 84.17 -3.1 25.3 -15.5 -5.2 27.8 -15.7 -2.37 24.23 -16.85 189.33 -87.71 92.52
36.078 -5.8 24.1 334.6 88.42 -1.9 24.6 -17.4 0.00 0.00 84.17 -3.8 25.2 -15.9 -5.8 27.7 -16.4 -2.79 24.20 -17.04 189.64 -87.86 92.66
36.098 -6.0 24.1 334.6 90.72 -2.0 24.6 -17.3 0.00 0.00 84.17 -3.9 25.4 -15.8 -6.4 27.6 -16.2 -3.33 24.10 -17.26 189.95 -88.01 92.80
36.118 -6.2 24.1 334.6 90.72 -2.2 24.4 -17.2 0.00 0.00 84.17 -4.1 25.2 -15.8 -6.3 27.7 -16.5 -3.59 24.09 -17.29 190.26 -88.17 92.97
36.138 -6.4 24.1 334.5 90.72 -2.5 24.5 -17.3 0.00 0.00 85.73 -4.3 25.0 -15.8 -6.7 27.2 -16.1 -3.72 23.91 -17.26 190.56 -88.32 93.13
36.158 -6.6 24.1 334.5 90.72 -2.9 24.6 -17.3 0.00 0.00 85.73 -4.8 25.5 -16.0 -6.5 27.2 -16.1 -3.83 23.64 -17.05 190.87 -88.47 93.29
36.178 -6.7 24.1 334.4 90.72 -3.2 24.6 -17.0 0.00 0.00 85.73 -5.1 25.2 -15.8 -6.6 27.0 -16.0 -3.80 23.52 -16.98 191.18 -88.63 93.46
36.199 -6.9 24.0 334.4 91.06 -3.1 24.8 -16.9 0.00 0.00 85.73 -5.2 25.4 -15.5 -7.2 26.6 -16.2 -4.09 23.24 -17.06 191.48 -88.78 93.62
36.219 -7.1 24.0 334.4 91.06 -3.1 24.8 -16.9 0.00 0.00 85.73 -5.1 25.5 -15.6 -7.2 26.4 -16.6 -4.36 22.98 -17.35 191.79 -88.93 93.78
36.239 -7.2 24.0 334.3 91.06 -3.2 24.6 -16.8 0.00 0.00 85.73 -5.1 25.4 -15.6 -7.3 26.5 -16.6 -4.39 22.92 -17.53 192.10 -89.09 93.94
36.259 -7.4 24.0 334.2 91.06 -3.6 24.3 -16.7 0.00 0.00 85.73 -5.3 25.2 -15.4 -7.5 26.0 -16.6 -4.49 22.71 -17.51 192.41 -89.25 94.10
36.279 -7.5 24.0 334.2 91.06 -4.0 24.2 -16.8 0.00 0.00 85.73 -5.9 24.8 -15.4 -7.8 25.7 -16.6 -4.73 22.33 -17.51 192.72 -89.40 94.26
36.299 -7.6 24.0 334.1 91.71 -4.0 24.1 -16.7 0.00 0.00 85.73 -6.1 25.0 -15.5 -7.9 25.7 -16.4 -4.93 22.18 -17.39 193.03 -89.56 94.42
36.319 -7.7 24.0 334.1 91.71 -4.0 24.2 -16.6 0.00 0.00 85.73 -5.9 24.7 -15.1 -8.2 25.7 -16.3 -5.11 22.15 -17.19 193.34 -89.71 94.58
36.339 -7.8 24.0 334.0 91.71 -4.0 24.3 -16.5 0.00 0.00 87.30 -6.0 25.1 -15.3 -7.9 25.8 -15.9 -5.11 22.17 -16.96 193.65 -89.87 94.74
36.359 -7.9 24.0 333.9 91.71 -4.1 24.1 -16.5 0.00 0.00 87.30 -5.9 24.9 -15.0 -8.2 25.7 -16.2 -5.10 22.18 -16.90 193.95 -90.03 94.90
36.379 -7.9 24.0 333.9 91.71 -4.3 24.1 -16.7 0.00 0.00 87.30 -6.2 24.7 -15.3 -8.1 25.7 -15.9 -5.18 22.15 -16.93 194.26 -90.18 95.06
36.399 -8.0 24.0 333.8 93.74 -4.8 24.1 -17.0 0.00 0.00 87.30 -6.4 24.8 -15.4 -8.3 25.6 -16.0 -5.26 22.11 -16.86 194.57 -90.34 95.21
36.419 -8.0 24.0 333.7 93.74 -5.4 23.9 -17.4 0.00 0.00 87.30 -7.2 24.6 -15.8 -9.0 25.6 -16.7 -5.70 22.03 -17.23 194.88 -90.50 95.39
36.439 -8.1 24.0 333.6 93.74 -5.6 23.9 -17.9 0.00 0.00 87.30 -7.5 24.5 -16.3 -9.6 25.6 -17.0 -6.30 22.05 -17.71 195.19 -90.65 95.56
36.460 -8.1 24.0 333.5 93.74 -5.7 24.0 -18.2 0.00 0.00 87.30 -7.6 24.4 -16.8 -9.3 25.3 -17.3 -6.46 21.94 -18.03 195.51 -90.81 95.74
36.480 -8.1 24.1 333.5 93.74 -5.5 24.1 -18.4 0.00 0.00 87.30 -7.8 24.7 -17.1 -9.8 25.5 -17.7 -6.56 21.91 -18.41 195.82 -90.97 95.92
36.500 -8.1 24.1 333.4 93.78 -5.5 23.9 -18.3 0.00 0.00 87.30 -7.3 24.6 -17.1 -9.8 25.8 -17.9 -6.76 22.16 -18.69 196.13 -91.13 96.09
36.520 -8.1 24.1 333.3 93.78 -5.7 24.0 -18.2 0.00 0.00 87.30 -7.6 24.4 -16.9 -9.6 25.6 -17.9 -6.65 22.18 -18.76 196.44 -91.28 96.26
36.540 -8.1 24.1 333.2 93.78 -5.7 24.3 -18.1 0.00 0.00 88.90 -7.6 24.6 -16.9 -9.9 25.5 -17.9 -6.71 22.06 -18.74 196.76 -91.44 96.42
36.560 -8.1 24.1 333.1 93.78 -5.7 24.4 -18.4 0.00 0.00 88.90 -7.6 25.0 -16.8 -9.8 25.8 -17.6 -6.85 22.18 -18.59 197.07 -91.60 96.59
36.580 -8.0 24.1 333.0 93.78 -6.0 24.3 -19.0 0.00 0.00 88.90 -7.8 24.9 -17.4 -9.9 25.8 -18.0 -6.88 22.32 -18.67 197.39 -91.76 96.75
36.600 -8.0 24.2 332.9 93.73 -6.1 24.0 -19.4 0.00 0.00 88.90 -8.1 24.8 -18.0 -9.8 25.7 -18.6 -6.88 22.28 -19.20 197.70 -91.92 96.92
36.620 -8.0 24.2 332.8 93.73 -6.3 23.8 -19.4 0.00 0.00 88.90 -8.1 24.4 -18.2 -9.9 25.4 -18.8 -6.89 22.10 -19.58 198.01 -92.08 97.08
36.641 -7.9 24.2 332.8 93.73 -6.7 24.0 -19.5 0.00 0.00 88.90 -8.3 24.4 -18.1 -10.3 25.5 -18.9 -7.13 21.98 -19.74 198.33 -92.24 97.23
36.660 -7.8 24.2 332.7 93.73 -6.9 24.5 -19.9 0.00 0.00 88.90 -8.7 24.9 -18.4 -10.4 25.0 -18.8 -7.39 21.75 -19.78 198.64 -92.40 97.39
36.680 -7.7 24.2 332.6 93.73 -7.0 24.6 -20.2 0.00 0.00 88.90 -8.8 25.2 -18.9 -10.0 24.8 -19.4 -7.26 21.40 -20.01 198.95 -92.56 97.55
36.700 -7.6 24.2 332.5 91.10 -7.1 24.7 -20.7 0.00 0.00 88.90 -8.9 25.2 -19.0 -10.3 25.2 -19.6 -7.21 21.50 -20.36 199.26 -92.72 97.70
36.721 -7.4 24.3 332.4 91.10 -6.9 24.7 -20.9 0.00 0.00 88.90 -8.9 25.4 -19.8 -10.4 25.0 -20.0 -7.41 21.63 -20.64 199.58 -92.88 97.82
36.741 -7.3 24.3 332.3 91.10 -6.6 24.8 -20.6 0.00 0.00 90.49 -8.4 25.2 -19.4 -10.1 24.8 -19.6 -7.29 21.46 -20.64 199.89 -93.04 97.93
36.761 -7.1 24.3 332.2 91.10 -6.6 24.9 -20.5 0.00 0.00 90.49 -8.3 25.5 -19.3 -9.7 24.9 -19.6 -6.97 21.42 -20.43 200.20 -93.20 98.04
